NOMREG;NOMDEP;DATEAPPELLATION;FERME;ANNREOUV;ANNEXE;nom_du_musee;ADR;CP;VILLE;SITWEB;latitude;longitude
ALSACE;BAS-RHIN;01/02/2003;NON;;;Musée de la Folie Marco;30, Rue du Dr Sultzer;67140;BARR;www.barr.fr;48.410188;7.45112
ALSACE;BAS-RHIN;01/02/2003;NON;;;Musée de la Poterie;2, rue de Kuhlendorf;67660;BETSCHDORF;www.betschdorf.fr/tourisme/visiter_betschdrof/musee_poterie.php;48.900331;7.914441
ALSACE;BAS-RHIN;01/02/2003;OUI;29-juin-13;;Musée de Bouxwiller et du Pays de Hanau;"2, Place du Château
Halle aux Blés";67330;BOUXWILLER;www.musee-pays-hanau.webmuseo.com;48.824975;7.482776
ALSACE;BAS-RHIN;01/02/2003;NON;;;Musée Alsacien;1, place Joseph Thierry;67500;HAGUENAU;www.ville-haguenau.fr/pages/culture/musee.htm;48.814611;7.789527
ALSACE;BAS-RHIN;01/02/2003;NON;;;Musée Historique;"9, Rue du Maréchal Foch
B.P. 40261";67504;HAGUENAU Cedex;www.ville-haguenau.fr/pages/culture/musee.htm ou www.museumspass.com/dn_musees-haguenau/;48.812831;7.791479
ALSACE;BAS-RHIN;01/02/2003;NON;;;Musée de la Chartreuse;4, Cour des Chartreux;67120;MOLSHEIM;www.chartreuse-molsheim.info;48.54278;7.49023
ALSACE;BAS-RHIN;01/02/2003;NON;;;Maison de l'Archéologie des Vosges du Nord;44, Avenue Foch;67110;NIEDERBRONN-LES-BAINS;www.musee-niederbronn.fr;48.947443;7.650429
ALSACE;BAS-RHIN;15/12/2002;NON;;;Musée de l'Image Populaire de Pfaffenhoffen;24, rue du Docteur Albert Schweitzer;67350;PFAFFENHOFFEN;www.pfaffenhoffen.org ou http://www.musee-image-populaire.webmuseo.com/;48.844809;7.611262
ALSACE;BAS-RHIN;01/02/2003;NON;;;Musée du Fer;9, rue Jeanne d'Arc;67110;REICHSHOFFEN;musee-reischshoffen.webmuseo.com ou www.lacastine.com;48.932379;7.665286
ALSACE;BAS-RHIN;01/02/2003;NON;;;Musée du Château des Rohan;"Château des Rohans
Place du Général de Gaulle";67700;SAVERNE;http://www.louise weiss.org;48.741895;7.362216
ALSACE;BAS-RHIN;01/02/2003;NON;;;Musée des Arts Décoratifs;"Palais Rohan
2, Place du Château";67000;STRASBOURG;www.musees-strasbourg.eu;48.581323;7.751359
ALSACE;BAS-RHIN;23/06/2008;NON;;;Musée Tomi Ungerer;"Villa Greiner
2, avenue de la Marseillaise";67000;STRASBOURG;www.musees-strasbourg.eu;48.585556;7.755619
ALSACE;BAS-RHIN;01/02/2003;NON;;;Musée des Beaux-Arts;"Palais Rohan
2, Place du Château";67000;STRASBOURG;www.musees.strasbourg.eu;48.581323;7.751359
ALSACE;BAS-RHIN;01/02/2003;NON;29-juin-07;;Musée Historique;2, Rue du Vieux Marché aux Poissons;67000;STRASBOURG;www.musees-strasbourg.eu;48.580496;7.74967
ALSACE;BAS-RHIN;01/02/2003;NON;;;Musée Alsacien;23-25, Quai Saint-Nicolas;67000;STRASBOURG;www.musees-strasbourg.eu;48.57862;7.748812
ALSACE;BAS-RHIN;06/01/2002;NON;;;Musée Archéologique;"Palais Rohan
2, Place du Château";67000;STRASBOURG;www.musees.strasbourg.eu;48.581323;7.751359
ALSACE;BAS-RHIN;01/02/2003;NON;;;Musée de l'Œuvre Notre-Dame;3, Place du Château;67000;STRASBOURG;www.musees-strasbourg.eu;48.580997;7.751064
ALSACE;BAS-RHIN;01/02/2003;NON;;;Cabinet des Estampes et des Dessins;5, Place du Château;67000;STRASBOURG;www.musees-strasbourg.eu;48.581108;7.750893
ALSACE;BAS-RHIN;01/02/2003;NON;;;Musée d'Art Moderne et Contemporain de Strasbourg;1 place Hans Jean Arp;67000;STRASBOURG;www.musees-strasbourg.eu;48.580058;7.736546
ALSACE;BAS-RHIN;01/02/2003;NON;;;Musée Zoologique de l'Université Louis Pasteur et de la Ville de Strasbourg;29, Boulevard de la Victoire;67000;STRASBOURG;www.musees.strasbourg.eu;48.582685;7.764696
ALSACE;BAS-RHIN;01/02/2003;NON;;;Musée J.F. Oberlin;25, Montée Oberlin;67130;WALDERSBACH;www.musee-oberlin.com;48.414761;7.214894
ALSACE;BAS-RHIN;26/03/2007;NON;01-juil-11;;Musée Lalique;40 rue du Hochberg;67290;WINGEN-SUR-MODER;www.musee-lalique.com;48.927033;7.361922
ALSACE;BAS-RHIN;01/02/2003;OUI;2013;;Musée Westercamp;3, rue du Musée;67160;WISSEMBOURG;www.musee-wissembourg.webmuseo.com ou www.ville-wissembourg.eu;49.038815;7.944344
ALSACE;BAS-RHIN;01/02/2003;NON;;;Musée de la Bataille du 6 Août 1870;2, Rue du Moulin;67360;WOERTH;www.woerth-en-alsace.com;48.938618;7.747992
ALSACE;HAUT-RHIN;01/02/2003;NON;;;Musée Sundgauvien d'Altkirch;1, Rue de l'Hôtel de Ville;68130;ALTKIRCH;;47.623494;7.23739
ALSACE;HAUT-RHIN;01/02/2003;NON;;;Musée Gallo-Romain;Place de la Mairie;68600;BIESHEIM;www.ville-biesheim.fr/museegr.html;48.041378;7.547923
ALSACE;HAUT-RHIN;01/02/2003;NON;15-sept-07;;Musée de la Porte de Thann;1, Rue de Thann;68700;CERNAY;http://histoire-cernay.perso.sfr.fr ou www.musees-alsace.org;47.809504;7.174289
ALSACE;HAUT-RHIN;01/02/2003;NON;;;Musée d'Unterlinden;1, rue Unterlinden;68000;COLMAR;www.musee-unterlinden.com;48.079733;7.354974
ALSACE;HAUT-RHIN;01/02/2003;NON;;;Musée Bartholdi;30, Rue des Marchands;68000;COLMAR;www.musee-bartholdi.com ou www.colmar.fr ou www.culture.fr;48.076747;7.357746
ALSACE;HAUT-RHIN;01/02/2003;NON;;;Musée d'Histoire Naturelle et d'Ethnographie de Colmar;11, Rue Turenne;68000;COLMAR;www.museumcolmar.org;48.073594;7.35872
ALSACE;HAUT-RHIN;01/02/2003;NON;;;Musée Théodore Deck et des Pays du Florival;1, Rue du Quatre Février;68500;GUEBWILLER;www.ville-guebwiller.fr/musee-deck/;47.905522;7.214504
ALSACE;HAUT-RHIN;01/02/2003;NON;;;Musée Historique et Militaire de Huningue;6, rue des Boulangers;68330;HUNINGE;;47.591513;7.584985
ALSACE;HAUT-RHIN;01/02/2003;NON;;;Musée d'Histoire Local;64, avenue du Général de Gaulle;68240;KAYSERSBERG;www.ville-kaysersberg.fr;48.139072;7.261441
ALSACE;HAUT-RHIN;01/02/2003;NON;;;Musée du Vignoble et des Vins d'Alsace;Château de la Confrérie St-Etienne;68240;KIENTZHEIM;www.musee-du-vignoble-alsace.fr;;
ALSACE;HAUT-RHIN;18/11/2002;NON;11-mars-05;;Cité du Train;2, rue Alfred de Glehn;68200;MULHOUSE;www.citedutrain.com;47.751091;7.293676
ALSACE;HAUT-RHIN;01/02/2003;NON;;;Musée Historique;4, Rue des Archives;68100;MULHOUSE;www.musees-mulhouse.fr/musee-historique/collections.html;47.746535;7.339544
ALSACE;HAUT-RHIN;01/02/2003;OUI;juin-13;;Musée du Sapeur Pompier;"Association des Amis du Musée
4, Boulevard de la Marseillaise";68100;MULHOUSE;http://musee.spmulhouse.free.fr;47.757665;7.335541
ALSACE;HAUT-RHIN;01/02/2003;NON;;;Musée des Beaux-Arts;4, Place Guillaume-Tell;68100;MULHOUSE;http://www.musees-mulhouse.fr/musee-des-beaux-arts/collections.html;47.745774;7.338271
ALSACE;HAUT-RHIN;01/02/2003;NON;;;Musée de l'Impression sur Etoffes;"14, rue Jean-Jacques Henner
B.P. 1468";68072;MULHOUSE CEDEX;www.musee-impression.com;47.74415;7.343298
ALSACE;HAUT-RHIN;01/02/2003;NON;25-mars-00;;Musée National de l'Automobile - Collection Schlumpf;"192, Avenue de Colmar
CS 91096";68051;MULHOUSE Cedex;www.collection-schlumpf.com;47.760209;7.327993
ALSACE;HAUT-RHIN;01/02/2003;NON;;;Musée EDF Electropolis;"55, rue du Pâturage
B.P. 52463";68057;MULHOUSE Cedex;electropolis.edf.com;47.749347;7.295182
ALSACE;HAUT-RHIN;01/02/2003;OUI;;;Musée Minéralogique de la Société Industrielle de Mulhouse;3, Avenue Alfred-Werner;68093;MULHOUSE Cedex;;47.732773;7.312173
ALSACE;HAUT-RHIN;01/02/2003;NON;;;Musée Vauban;7, Place de la Porte de Belfort;68600;NEUF-BRISACH;www.neuf-brisach.fr;48.016059;7.525831
ALSACE;HAUT-RHIN;01/02/2003;NON;;;Maison du Sundgau - Musée Paysan;10, rue Principale;68480;OLTINGUE;http://musee.paysan.free.fr/;47.492827;7.391275
ALSACE;HAUT-RHIN;01/02/2003;NON;;;Musée du Dolder;57, Rue du Général de Gaulle;68340;RIQUEWIHR;Site des musées d'Alsace;48.16694;7.297357
ALSACE;HAUT-RHIN;01/02/2003;NON;;;Musée du Papier Peint;"La Commanderie  28, rue Zuber
B.P. 41";68171;RIXHEIM Cedex;www.museepapierpeint.org;47.74438;7.397815
ALSACE;HAUT-RHIN;01/02/2003;NON;;;Musée des Amis de Thann;24, Rue Saint Thiébaut;68800;THANN;www.ville-thann.fr - http://www.genealogiethaznn.org;47.812283;7.101737
ALSACE;HAUT-RHIN;01/02/2003;NON;;;Ecomusée d'Alsace;B.P. 71;68190;UNGERSHEIM;www.ecomusee-alsace.com;;
AQUITAINE;DORDOGNE;01/02/2003;NON;;;Musée d'Anthropologie du Tabac d'Intérêt National;"Maison Peyrarède
Place du Feu";24100;BERGERAC;http://www.bergerac.fr/EspCulture/sitetabac/index.htm;44.849787;0.483514
AQUITAINE;DORDOGNE;01/02/2003;NON;;;Château de Bourdeilles;Bourdeilles;24310;BOURDEILLES;Site des musées aquitains;45.316682;0.565763
AQUITAINE;DORDOGNE;01/02/2003;NON;;;Musée Fernand Desmoulin;Boulevard Charlemagne;24310;BRANTOME;Site des musées aquitains ou http://www.perigord-dronne-belle.fr;45.364629;0.647342
AQUITAINE;DORDOGNE;01/02/2003;OUI;Non prévu;;Musée-Aquarium;Site Bella-Riva;24100;CREYSSE;;44.854577;0.564797
AQUITAINE;DORDOGNE;01/02/2003;NON;;;Musée Paul Reclus;Place de la Halle;24250;DOMME;;44.803002;1.214222
AQUITAINE;DORDOGNE;06/01/2002;NON;2004;;Musée National de la Préhistoire;B.P. 7;24620;LES EYZIES-DE-TAYAC;www.musee-prehistoire-eyzies.fr;;
AQUITAINE;DORDOGNE;01/02/2003;OUI;Pas de projet;;Musée Eugène Le Roy et des Vieux Métiers;Place Bertran de Borne;24290;MONTIGNAC;;45.063871;1.163492
AQUITAINE;DORDOGNE;01/02/2003;NON;;;Musée des Arts et Traditions Populaires du Périgord;2, Rue Raoul Grassin;24400;MUSSIDAN;www.museevoulgre.cjb.net;45.037552;0.362147
AQUITAINE;DORDOGNE;01/02/2003;OUI;Non prévue;;Musée Départemental de la Poupée et du Jouet;Avenue du Général Leclerc;24300;NONTRON;Site des musées aquitains;45.527035;0.660711
AQUITAINE;DORDOGNE;01/02/2003;NON;;;Musée d'Art et d'Archéologie du Périgord (MAAP);22, Cours Tourny;24000;PERIGUEUX;http://www.perigueux-maap.fr/;45.186039;0.72395
AQUITAINE;DORDOGNE;19/11/2009;NON;;;Musée Gallo-Romain de Vesunna;"Parc de Vésone
20, Rue du 26ème Régiment d'Infanterie";24000;PERIGUEUX;www.vesunna.fr ou http://www.perigueux-vesunna.fr/;45.179999;0.71269
AQUITAINE;DORDOGNE;01/02/2003;NON;;;Musée Militaire - Souvenir du Périgord;32, Rue des Farges;24000;PERIGUEUX;www.museemilitaire-perigord.fr;45.183285;0.720943
AQUITAINE;DORDOGNE;01/02/2003;OUI;2012;;Musée du Site Médiéval;;24440;SAINT-AVIT-SENIEUR;;44.756834;0.842382
AQUITAINE;DORDOGNE;01/02/2003;OUI;Non prévue;;Musée de Sarlat et du Périgord Noir;B.P. 163;24205;SARLAT-LA-CANEDA;Site des musées aquitains;;
AQUITAINE;DORDOGNE;01/02/2003;OUI;2013;;Musée d'Art et Traditions Populaires;"Hôtel de ville
Place de la liberté";24610;VILLEFRANCHE-DE-LONCHAT;Site des musées aquitains;;
AQUITAINE;GIRONDE;01/02/2003;OUI;Non encore prévue;;Musée Municipal de Blasimon;Mairie de Blasimon;33540;BLASIMON;;44.747676;-0.092939
AQUITAINE;GIRONDE;01/02/2003;OUI;Non précisée;;Musée d'Art et d'Histoire du Pays Blayais;Citadelle de Blaye;33390;BLAYE;Site des musées aquitains;45.126379;-0.663606
AQUITAINE;GIRONDE;01/02/2003;NON;;;Centre National Jean Moulin;"Direction des établissements culturels
48, rue Vital Carles";33000;BORDEAUX;Site de la ville : www.bordeaux.fr;44.838651;-0.577869
AQUITAINE;GIRONDE;01/02/2003;NON;;;CAPC Musée d'Art Contemporain de Bordeaux;"Entrepôt
7, Rue Ferrère";33000;BORDEAUX;www.capc-bordeaux.fr ou www.bordeaux.fr;44.848186;-0.572137
AQUITAINE;GIRONDE;06/01/2002;NON;;;Musée d'Aquitaine;20, Cours Pasteur;33000;BORDEAUX;www.musee-aquitaine-bordeaux.fr;44.835543;-0.575205
AQUITAINE;GIRONDE;06/01/2002;NON;;;Musée des Beaux-Arts;20, Cours D'Albret;33000;BORDEAUX;www.musba-bordeaux.fr;44.838056;-0.579413
AQUITAINE;GIRONDE;01/02/2003;NON;;;Musée des Arts Décoratifs;"Hôtel de Lalande
39, Rue Bouffard";33000;BORDEAUX;Site de la ville -  www.mairie-bordeaux.fr;44.838956;-0.579686
AQUITAINE;GIRONDE;01/02/2003;OUI;2016-2017;;Muséum d'Histoire Naturelle de Bordeaux;5, Place Bardineau;33000;BORDEAUX;www.mairie-bordeaux.fr;44.848154;-0.580085
AQUITAINE;GIRONDE;01/02/2003;NON;;;Musée Goupil;"Conservatoire de l'Image Industrielle
20 Cours Pasteur";33000;BORDEAUX;Site de la ville;44.835543;-0.575205
AQUITAINE;GIRONDE;01/02/2003;NON;;;Musée de la Voiture à Cheval;3, Place de la Citadelle;33710;BOURG-SUR-GIRONDE;Site des musées d'aquitaine;45.039708;-0.560791
AQUITAINE;GIRONDE;01/02/2003;OUI;Réflexion pour CIAP;;Musée Municipal;Esplanade Charles de Gaulle;33190;LA REOLE;;44.581128;-0.041074
AQUITAINE;GIRONDE;01/02/2003;NON;;;Musée des Beaux-Arts et d'Archéologie;42, Place  Abel Surchamp;33500;LIBOURNE;www.musees-libourne.org;44.914487;-0.245068
AQUITAINE;GIRONDE;01/02/2003;OUI;Non précisée;;Musée Historique ou du Vieux Libourne (Robin);;33500;LIBOURNE;;44.91759;-0.244124
AQUITAINE;GIRONDE;01/02/2003;OUI;Projet CIAP;;Musée d'Histoire et d'Archéologique;Logis Mallet;33330;SAINT-EMILION;;;
AQUITAINE;GIRONDE;01/02/2003;OUI;Pas d'info;;Musée Municipal;Maison Braneyre Impasse Dupeyron;33730;VILLANDRAUT;;;
AQUITAINE;LANDES;01/02/2003;NON;;;Musée Historique de l'Hydravion;332, Avenue Louis Breguet;40600;BISCARROSSE;www.hydravions-biscarrosse.com;44.388887;-1.182563
AQUITAINE;LANDES;01/02/2003;NON;21-juin-08;;Musée de Borda;"Mairie de Dax Service du musée Borda
14, Rue Saint Pierre
B.P. 50344";40107;DAX Cédex;http://www.dax.fr/musee-de-borda - Site des musées aquitains;43.708837;-1.051437
AQUITAINE;LANDES;01/02/2003;NON;04-oct-03;;Musée Départemental de Préhistoire;Abbaye d'Arthous;40300;HASTINGUES;www.culture-commune.fr - www.arthous.landes.org/;43.524706;-1.121479
AQUITAINE;LANDES;01/02/2003;OUI;2014;;Atelier-Musée  (Ecomusée de la Grande Landes);101, Rue Jacques Desert;40043;LUXEY;Site du parc - www.parc-landes-de-gascogne.fr;44.263529;-0.518812
AQUITAINE;LANDES;01/02/2003;NON;;;Musée Despiau-Wlérick;6, Place Marguerite de Navarre;40000;MONT-DE-MARSAN;www.mont-de-marsan.org/decouvrir/decouv_muse.html ou Site des musées aquitains;43.892599;-0.498893
AQUITAINE;LANDES;01/02/2003;NON;;;Musée de la Chalosse;"Domaine de Carcher
480, Chemin du Sala
B.P. 24";40380;MONTFORT-EN-CHALOSSE;www.museedelachalosse.fr;43.715749;-0.833916
AQUITAINE;LANDES;01/02/2003;NON;;;Ecomusée de la Grande Lande;Route de Soférino;40630;SABRES;www.parc-landes-de-gascogne.fr;44.149054;-0.750737
AQUITAINE;LANDES;01/02/2003;NON;;;Musée Municipal;Rue du Général Lamarque;40500;SAINT-SEVER;http://www.saint-sever.fr/culture_musee.htm;43.758576;-0.572238
AQUITAINE;LANDES;01/02/2003;NON;2002;;Musée Départemental de la Faïence et des Arts de la table;2378, Route d'Hagetmau;40320;SAMADET;www.museesamadet.landes.org;43.641006;-0.510832
AQUITAINE;LANDES;01/02/2003;NON;juin-09;;Musée Municipal du Lac;112, Place de la Mairie;40460;SANGUINET;www.ville-sanguinet.fr;44.483691;-1.075968
AQUITAINE;LOT ET GARONNE;01/02/2003;NON;;;Musée des Beaux-Arts;Place du Dr Pierre Esquirol;47916;AGEN Cedex 9;www.agen.fr/musee;44.202967;0.615493
AQUITAINE;LOT ET GARONNE;01/02/2003;NON;;;Musée Municipal Albert Marzelles;15, Rue Abel Boyé;47200;MARMANDE;Site des musées aquitains et site de la ville;44.498918;0.166067
AQUITAINE;LOT ET GARONNE;29/08/2006;NON;;;Musée du Liège et du Bouchon;Rue du Puits Saint Côme;47170;MEZIN;www.cg47.fr;44.056911;0.25639
AQUITAINE;LOT ET GARONNE;01/02/2003;NON;;;Musée du Château Henri IV;Rue Henri IV;47600;NERAC;Site des musées aquitains ou www.nerac.fr;44.135138;0.33973
AQUITAINE;LOT ET GARONNE;01/02/2003;NON;2012;;Musée de Préhistoire Mésolithique Laurent Coulonges;Le Bourg;47500;SAUVETERRE-LA-LEMANCE;www.sauveterre-prehistoire.fr ou www.tourisme-fumelois.fr;44.597508;1.016896
AQUITAINE;LOT ET GARONNE;01/02/2003;NON;;;Musée Municipal (Moulin de Gajac);2, Rue du Jardins;47300;VILLENEUVE-SUR-LOT;Site de la ville;44.405095;0.707815
AQUITAINE;PYRÉNÉES ATLANTIQUES;01/02/2003;NON;;;Musée Municipal;Rue de l'Eglise;64260;ARUDY;www.museearudy.com ou www.ot-arudy.fr;43.105938;-0.42719
AQUITAINE;PYRÉNÉES ATLANTIQUES;01/02/2003;OUI;;;Musée Bonnat-Helleu - Musée des Beaux-Arts de Bayonne;5, Rue Jacques-Laffitte;64100;BAYONNE;www.museebonnat.bayonne.fr;43.49213;-1.472317
AQUITAINE;PYRÉNÉES ATLANTIQUES;01/02/2003;NON;21/06/2001;;Musée Basque et de l'Histoire de Bayonne;37, Quai des Corsaires;64100;BAYONNE;www.musee-basque.com;43.491074;-1.473873
AQUITAINE;PYRÉNÉES ATLANTIQUES;01/02/2003;NON;juin-10;;Muséum d'Histoire Naturelle;"Hôtel de ville
1, Avenue Maréchal Leclerc";64100;BAYONNE;www.museum.bayonne.fr;43.493388;-1.48047
AQUITAINE;PYRÉNÉES ATLANTIQUES;01/02/2003;NON;;;Musée Edmond Rostand;"Villa Arnaga
Route du Docteur Camino";64250;CAMBO-LES-BAINS;www.arnaga.com;;
AQUITAINE;PYRÉNÉES ATLANTIQUES;01/02/2003;NON;;;Musée Municipal de Guéthary;"Parc municipal André Narbaits 
117, Avenue du Général de Gaulle";64210;GUETHARY;http://www.musee-de-guethary.fr/ OU Site des musées aquitains;43.421516;-1.607796
AQUITAINE;PYRÉNÉES ATLANTIQUES;01/02/2003;NON;;;Musée Municipal des Beaux-Arts;Rue Mathieu Lalanne;64000;PAU;http://musee.ville-pau.fr;43.297273;-0.364361
AQUITAINE;PYRÉNÉES ATLANTIQUES;06/01/2002;NON;;;Musée National du Château;;64000;PAU;www.musee-chateau-pau.fr;43.301752;-0.369218
AQUITAINE;PYRÉNÉES ATLANTIQUES;01/02/2003;OUI;?;;Musée Béarnais;"Association Régionaliste de Pyrénées
7 avenue Henri Faisans";64000;PAU;;43.299954;-0.361253
AQUITAINE;PYRÉNÉES ATLANTIQUES;01/02/2003;NON;;;Musée Bernadotte;8, Rue Tran;64000;PAU;site de la ville;43.297209;-0.372526
AUVERGNE;ALLIER;01/02/2003;NON;;;Musée Charles-Louis Philippe;5, Rue Charles-Louis Philippe;3350;CERILLY;www.mairie-cerilly.fr;46.617913;2.823245
AUVERGNE;ALLIER;01/02/2003;NON;;;Musée Municipal de Gannat;Place Rantian;3800;GANNAT;http://www.bassin-gannat.com/;46.102147;3.19633
AUVERGNE;ALLIER;01/02/2003;OUI;Non prévue;;Musée Rural de la Sologne Bourbonnaise;"Michel LABONNE
Secrétaire des Amis du Muséee
149, Route de Bourgogne";3400;IZEURE;;46.57337;3.359803
AUVERGNE;ALLIER;01/02/2003;OUI;21-juin-13;;Musée des Musiques Populaires - MuPop;3, Rue Notre Dame;3100;MONTLUCON;www.mupop.fr;46.34088;2.605558
AUVERGNE;ALLIER;19/11/2009;NON;;;Centre National du Costume de Scène et de la Scénographie;"Quartier Villars
Route de montilly";3000;MOULINS;www.cncs.fr;;
AUVERGNE;ALLIER;01/02/2003;NON;;;Musée Anne de Beaujeu;"1, Avenue Victor Hugo
B.P. 1669";3016;MOULINS Cedex;www.mab.allier.fr;46.568527;3.333844
AUVERGNE;ALLIER;01/02/2003;NON;;;Musée Rieckotter;"Hôtel de Ville
Boulevard des Arène - B.P. 10";3310;NERIS-LES-BAINS;www.ville-neris-les-bains.fr;;
AUVERGNE;ALLIER;01/02/2003;NON;;;Musée Municipal de Souvigny;Place Aristide Briand;3210;SOUVIGNY;site de la ville www.ville-souvigny.com;46.534768;3.192475
AUVERGNE;ALLIER;01/02/2003;NON;02-juil-02;;Musée des Arts D'Afrique et D'Asie;11, Rue Mounin;3200;VICHY;www.musee-aaa.com;46.128546;3.420555
AUVERGNE;CANTAL;01/02/2003;NON;;;Musée des Sciences;Château Saint Etienne;15000;AURILLAC;www.aurillac.fr;44.933328;2.444943
AUVERGNE;CANTAL;01/02/2003;NON;;;Musée d'Art et d'Archéologie;"Centre Culturel Pierre Mendès France
37, rue des Carmes";15012;AURILLAC Cedex;www.ville-aurillac.fr;44.925394;2.441947
AUVERGNE;CANTAL;01/02/2003;NON;;;Ecomusée de Margeride-Haute-Auvergne;"La Tour
Jardin de Saint-Martin";15320;RUYNES-EN-MARGERIDE;http://www.saint-flour.fr/culture/musees/ecomusee-margeride.php;45.000522;3.224427
AUVERGNE;CANTAL;01/02/2003;NON;;;Musée d'art et d'histoire Alfred Douët;"Maison consulaire
17, Place d'Armes";15100;SAINT-FLOUR;Site de la ville;45.034016;3.095067
AUVERGNE;CANTAL;01/02/2003;NON;;;Musée de la Haute Auvergne;"Palais épiscopal
1, Place d'Armes";15100;SAINT-FLOUR;www.auvergne-centrefrance.com/geotouring/musees/detail/mus154.htm;45.033137;3.094858
AUVERGNE;HAUTE-LOIRE;01/02/2003;NON;;;Musée de Paléontologie;Place de l'église;43380;CHILHAC;http://www.museechilhac.fr;45.158926;3.432601
AUVERGNE;HAUTE-LOIRE;01/02/2003;NON;;;Musée des Arts et Traditions Populaires de Haute Loire;;43100;LAVAUDIEU;Site des amis de Lavaudieu - www.abbayedelavaudieu.fr;45.274699;3.434854
AUVERGNE;HAUTE-LOIRE;01/02/2003;OUI;;;Musée Crozatier;Jardin Henri Vinay;43000;LE PUY-EN-VELAY;www.lepuyenvelay.fr;;
AUVERGNE;HAUTE-LOIRE;22/04/2002;NON;"7 juillet  2007
Inauguration le 7 juillet 2007";;Musée des Manufactures de Dentelles;14, avenue de la Gare;43130;RETOURNAC;www.ville-retournac.fr/musee/francais/indexfr.htm;45.202545;4.035302
AUVERGNE;HAUTE-LOIRE;01/02/2003;NON;;;Musée de la Ferblanterie;;43300;SAINT ARCONS D'ALLIER;;45.090036;3.574618
AUVERGNE;PUY DE DÔME;01/02/2003;NON;;;Musée de la Dentelle;53, Route Nationale;63220;ARLANC;www.arlanc.com/musee_dentelle.htm;45.414373;3.724421
AUVERGNE;PUY DE DÔME;01/02/2003;NON;;;Musée d'Archéologie Bargoin;45, rue Ballainvilliers;63000;CLERMONT-FERRAND;www.clermont-ferrand.fr/-Musee-Bargoin-.html;45.774229;3.0869
AUVERGNE;PUY DE DÔME;01/02/2003;NON;;;Musée d'Art Roger-Quillot;"Quartier historique de Montferrand
Place Louis Deteix";63100;CLERMONT-FERRAND;http://museedart.clermont-ferrand.fr;;
AUVERGNE;PUY DE DÔME;06/01/2002;NON;;;Muséum d'Histoire Naturelle Henri-Lecoq;15, rue Bardoux;63000;CLERMONT-FERRAND;www.museelecoq.clermont-ferrand.fr ou www.clermont-ferrand.fr/-Museum-Henri-Lecoq-.html;45.774138;3.088299
AUVERGNE;PUY DE DÔME;01/02/2003;NON;14-mars-07;;Musée Départemental de la Céramique Gallo-Romaine;"39, Rue de la République
B.P. 30";63190;LEZOUX;"www.puydedome.fr rubrique ""découvrir le Puy-de-Dôme""";46.632156;1.066913
AUVERGNE;PUY DE DÔME;01/02/2003;NON;;;Musée des Pénitents Blancs;Place de l'Eglise;63940;MARSAC-EN-LIVRADOIS;www.livradois.com/marsac/penitent/index.htm;45.478841;3.728706
AUVERGNE;PUY DE DÔME;01/02/2003;NON;;;Musée Paléontologique;Le Bourg;63560;MENAT;;46.103787;2.904038
AUVERGNE;PUY DE DÔME;01/02/2003;OUI;;;Musée Lapidaire;Place de l'Abbaye;63200;MOZAC;www.riom-communaute.fr;45.89205;3.094625
AUVERGNE;PUY DE DÔME;01/02/2003;NON;;;Musée Municipal;Parc du Prélong;63790;MUROL;www.musee-murol.net/Musee.htm;45.574781;2.943256
AUVERGNE;PUY DE DÔME;01/02/2003;NON;;;Musée Régional d'Auvergne;10 bis, Rue Delile;63200;RIOM;www.riom-communaute.fr;45.895037;3.116254
AUVERGNE;PUY DE DÔME;01/02/2003;NON;22-janv-11;;Musée Francisque Mandet;14, Rue de l'Hôtel de Ville;63200;RIOM;www.riom-communaute.fr;45.893874;3.116508
AUVERGNE;PUY DE DÔME;01/02/2003;NON;;;Musée Municipal de la Coutellerie;58, Rue de la Coutellerie;63300;THIERS;www.ville-thiers.fr/Musee-de-la-Coutellerie;45.852379;3.548141
AUVERGNE;PUY DE DÔME;01/02/2003;OUI;Eté 2011 - exposition;;Musée Municipal Marcel Sahut;2, rue des Ecoles;63530;VOLVIC;www.volvic-tourisme.com/HTML/sites/site_musee.htm;45.860585;3.024306
BOURGOGNE;CÔTE D’OR;01/02/2003;NON;2011;;Muséoparc - Alésia;1, Route des Trois Ormeaux;21150;ALISE-SAINTE-REINE;www.alesia.com;47.536592;4.469595
BOURGOGNE;CÔTE D’OR;01/02/2003;OUI;2018;;Musée Bonaparte;"Bibliothèque Municipale
Passage Xavier Girault";21130;AUXONNE;Site des musées de la région ou site de la ville;;
BOURGOGNE;CÔTE D’OR;01/02/2003;NON;22-avr-06;;Musée des Beaux-Arts;"Porte Marie de Bourgogne
6, boulevard Perpreuil";21200;BEAUNE;www.musees-bourgogne.org ou www.beaune.fr;47.02097;4.839394
BOURGOGNE;CÔTE D’OR;01/02/2003;OUI;Non encore prévue;;Musée E.J Marey;Hôtel de Ville;21200;BEAUNE;www.musees-bourgogne.org;47.026213;4.839367
BOURGOGNE;CÔTE D’OR;01/02/2003;NON;;;Musée du Vin de Bourgogne;"Hôtel des Ducs
Rue d'Enfer";21200;BEAUNE;www.musees-bourgogne.org ou www.beaune.fr;47.023506;4.836339
BOURGOGNE;CÔTE D’OR;01/02/2003;OUI;N'existe plus;;Musée de la Sidérurgie Grande Forge;La Grande Forge;21500;BUFFON;;47.649618;4.260887
BOURGOGNE;CÔTE D’OR;01/02/2003;NON;juin-09;;Musée du Pays Châtillonnais - Trésor de Vix;14, Rue de la Libération;21400;CHATILLON-SUR-SEINE;www.musee-vix.fr;47.863812;4.574628
BOURGOGNE;CÔTE D’OR;06/01/2002;NON;;;Musée Magnin;4, rue des Bons Enfants;21000;DIJON;www.musee-magnin.fr;47.320958;5.042188
BOURGOGNE;CÔTE D’OR;01/02/2003;NON;;;Musée de la Vie Bourguignonne, Perrin de Puycousin;"Monastère des Bernardines
15-17, rue Sainte-Anne";21000;DIJON;www.musees-bourgogne.org;47.317415;5.037131
BOURGOGNE;CÔTE D’OR;01/02/2003;NON;;;Musée François Rude;8, Rue Vaillant;21000;DIJON;http://mba.dijon.fr ou www.ville-dijon.fr;47.321222;5.04395
BOURGOGNE;CÔTE D’OR;01/02/2003;NON;;;Musée d'Art Sacré;"Monastère des Bernardines
15-17, rue Sainte-Anne";21000;DIJON;Site des musées de Bourgogne;47.317415;5.037131
BOURGOGNE;CÔTE D’OR;06/01/2002;NON;;;Muséum - Jardin des Sciences;"Parc de l'Arquebuse
14, Rue Jehan de Marville - 1 Avenue Albert 1er";21000;DIJON;www.dijon.fr;47.322449;5.015052
BOURGOGNE;CÔTE D’OR;01/02/2003;NON;;;Musée Archéologique;"5, Rue du Docteur Maret
CS 73310";21033;DIJON Cedex;Site des musées de Bourgogne - www.musees-bourgogne.org;47.32236;5.034429
BOURGOGNE;CÔTE D’OR;06/01/2002;NON;;;Musée des Beaux-Arts;"Palais des Ducs et des Etats de Bourgogne
CS 73310";21033;DIJON Cedex;http://mba.dijon.fr ou www.ville-dijon.fr;;
BOURGOGNE;CÔTE D’OR;01/02/2003;NON;;;Musée Noisot;Mairie de Fixin;21220;FIXIN;Site des musée de Bourgogne;47.243639;4.989806
BOURGOGNE;CÔTE D’OR;01/02/2003;OUI;Fermé définitivement;;Musée des Arts et Traditions des Hautes-Côtes;1 PLACE DE LA FONTAINE;21220;GEVREY-CHAMBERTIN - Reulle Vergy;;;
BOURGOGNE;CÔTE D’OR;01/02/2003;NON;;;Musée des Beaux-Arts;"Chapelle des Ursulines
Rue Piron";21500;MONTBARD;http://www.montbard.com/;47.624475;4.336854
BOURGOGNE;CÔTE D’OR;01/02/2003;NON;02-mai-04;;Musée Buffon;"Anciennes Ecuries de Buffon
B.P. 90";21506;MONTBARD cedex;http://www.montbard.com/ ou Site des musées de Bourgogne;;
BOURGOGNE;CÔTE D’OR;01/02/2003;NON;;;Musée Municipal;12, Rue Camille Rodier;21700;NUITS-SAINT-GEORGES;Site des musées de Bourgogne;47.138661;4.950405
BOURGOGNE;CÔTE D’OR;01/02/2003;NON;;;Musée Municipal François Pompon;3, Place du Docteur Roclore;21210;SAULIEU;Site des musées de Bourgogne ou www.saulieu.fr;47.279459;4.229714
BOURGOGNE;CÔTE D’OR;01/02/2003;NON;;;Musée Municipal;3, Rue Jean-Jacques Collenot;21140;SEMUR-EN-AUXOIS;Site des musées de Bourgogne;47.490173;4.336447
BOURGOGNE;NIÈVRE;01/02/2003;NON;;;Musée du Septennat;6, rue du Château;58120;CHATEAU-CHINON;www.cg58.fr;47.06721;3.934311
BOURGOGNE;NIÈVRE;01/02/2003;NON;;;Musée du Costume;16-18, rue Saint Christophe;58120;CHATEAU-CHINON;www.cg58.fr/patrimoi/costu.htm;47.066701;3.933691
BOURGOGNE;NIÈVRE;01/02/2003;NON;;;Musée d'Art et d'Histoire Romain Rolland;Avenue de la République;58500;CLAMECY;www.musees-bourgogne.org;47.460717;3.520761
BOURGOGNE;NIÈVRE;01/02/2003;NON;;;Musée de la Loire de Cosne sur Loire;Place de la Résistance;58200;COSNE-SUR-LOIRE;www.mairie-cosnessurloire.fr/Services/MUSEEE/ACCUEIL.htm;47.410594;2.922716
BOURGOGNE;NIÈVRE;01/02/2003;OUI;xx;;Musée Municipal;33, Rue des Chapelains;58400;LA CHARITE-SUR-LOIRE;Site de l'OTSI ou des musées de Bourgogne;47.178733;3.015633
BOURGOGNE;NIÈVRE;01/02/2003;NON;;;Musée de la Mine;1, Avenue de la République;58260;LA MACHINE;www.cc-loire-foret.fr ou www.cg58.fr et Site des musées de Bourgogne;46.889225;3.463514
BOURGOGNE;NIÈVRE;01/02/2003;OUI;Non prévue;;Musée Archéologique du Nivernais (Porte du Croux);"Société Nivernaise des Lettres et Sciences et Arts
Rue de la Porte du Croux";58000;NEVERS;Conseil général;;
BOURGOGNE;NIÈVRE;01/02/2003;OUI;28-sept-13;;Musée de la Faïence Frédéric Blandin;16, rue Saint-Genest;58000;NEVERS;www.musee-faience.nevers.fr;46.98629;3.155037
BOURGOGNE;NIÈVRE;01/02/2003;OUI;Non prévue;;Musée Ernest Guédon;17, quai Jules-Pabiot;58150;POUILLY-SUR-LOIRE;;47.285947;2.949487
BOURGOGNE;NIÈVRE;01/02/2003;NON;;;Musée du Grès de Puisaye;Château de Saint-Amand;58310;SAINT-AMAND-EN-PUISAYE;www.cg58.fr - Site musées de Bourgogne;47.536865;3.067214
BOURGOGNE;NIÈVRE;01/02/2003;NON;1993;;Musée Auguste Grasset;Place de la Mairie;58210;VARZY;www.cg58.fr ou www.musees-bourgogne.org;47.359969;3.388063
BOURGOGNE;SAONE ET LOIRE;06/01/2002;NON;;;Museum d'Histoire Naturelle Jacques de La Comble;14, Rue Saint-Antoine;71400;AUTUN;www.autun.com/tourisme/museum.php;46.947996;4.301812
BOURGOGNE;SAONE ET LOIRE;01/02/2003;OUI;Non prévue;;Musée Lapidaire Saint-Nicolas;Rue Saint Nicolas;71400;AUTUN;;46.955532;4.300124
BOURGOGNE;SAONE ET LOIRE;01/02/2003;NON;;;Musée Rolin;5, rue des Bancs;71400;AUTUN;www.autun.com ou Site des musées de Bourgogne;46.961209;4.305784
BOURGOGNE;SAONE ET LOIRE;01/02/2003;OUI;Non prévue;;Musée Verger Tarin;Rue des Sous-Chantres;71400;AUTUN;;46.944133;4.299862
BOURGOGNE;SAONE ET LOIRE;01/02/2003;NON;;;Musée de la Mine;34, rue du Bois Clair;71450;BLANZY;www.ecomusee-creusot-montceau.fr Site des musées de Bourgogne et de l'écomusée;46.701488;4.382962
BOURGOGNE;SAONE ET LOIRE;01/02/2003;NON;;;Musée Saint-Nazaire;Rue St Nazaire;71140;BOURBON-LANCY;Site des musées de Bourgogne ou www.bourbon-lancy.com/musees_fr_02_07_02.html;46.624461;3.770111
BOURGOGNE;SAONE ET LOIRE;01/02/2003;NON;;;Musée Nicéphore Niepce;28, Quai des Messageries;71100;CHALON-SUR-SAONE;www.museeniepce.com;46.780045;4.855727
BOURGOGNE;SAONE ET LOIRE;01/02/2003;NON;;;Musée Denon;Place de l'hotel de ville;71100;CHALON-SUR-SAONE;site des musées de Bourgogne;46.78089;4.853022
BOURGOGNE;SAONE ET LOIRE;01/02/2003;NON;;;Musée du Prieuré de Charolles;Rue du Prieuré;71120;CHAROLLES;Site des musées de Bourgogne ou site de la ville - http://www.ville-charolles.fr/musee-du-prieure;46.432494;4.279233
BOURGOGNE;SAONE ET LOIRE;01/02/2003;OUI;;;Musée René Davoine;32, rue René Davoine;71120;CHAROLLES;www.institut-charolais.com (site de l'office du tourisme);46.4329;4.271817
BOURGOGNE;SAONE ET LOIRE;01/02/2003;NON;;;Musée d'Art et d'Archéologie;"Palais Jean de Bourbon
Parc abbatial";71250;CLUNY;Site des musées de Bourgogne;;
BOURGOGNE;SAONE ET LOIRE;01/02/2003;NON;;;Musée de l'Homme et de l'Industrie - Ecomusée de la Communauté Le Creusot-Monceau-Les-Mines;"Château de la Verrerie
B.P. 53";71202;LE CREUSOT Cedex;www.ecomusee-creusot-montceau.fr;;
BOURGOGNE;SAONE ET LOIRE;01/02/2003;NON;;;"L'Atelier d'un Journal"" de Louhans - Musée Municipal";29, Rue des Dodânes;71500;LOUHANS;www.ecomusee-de-la-bresse.com ou site des musées de Bourgogne;46.630156;5.224455
BOURGOGNE;SAONE ET LOIRE;01/02/2003;NON;;;Musée des Ursulines;5, rue des Ursulines;71000;MACON;http://www.macon.fr/Culture-sports-et-loisirs/Les-Musees-de-Macon;46.307159;4.832892
BOURGOGNE;SAONE ET LOIRE;01/02/2003;NON;;;Musée Lamartine;41, Rue Sigorgne;71000;MACON;http://www.macon.fr/Culture-sports-et-loisirs/Les-Musees-de-Macon;46.305187;4.832539
BOURGOGNE;SAONE ET LOIRE;01/02/2003;NON;;;Musée de la Tour du Moulin;7-9, rue de la Tour;71110;MARCIGNY;www.marcigny.fr/musee-de-la-tour-du-moulin - http://tourdumoulin.blogspot.com;46.274545;4.043191
BOURGOGNE;SAONE ET LOIRE;01/02/2003;NON;24/09/2005;;Musée Eucharistique du Hiéron;13, Rue de la Paix;71600;PARAY-LE-MONIAL;www.musee-hieron.fr;46.451822;4.123021
BOURGOGNE;SAONE ET LOIRE;01/02/2003;OUI;Fusion des musées;;Musée Municipal;Avenue Jean-Paul II;71600;PARAY-LE-MONIAL;;46.450634;4.119775
BOURGOGNE;SAONE ET LOIRE;01/02/2003;NON;;;Ecomusée de la Bresse Bourguignonne;Château départemental;71270;PIERRE-DE-BRESSE;www.ecomusee-de-la-bresse.com;46.88301;5.262064
BOURGOGNE;SAONE ET LOIRE;01/02/2003;NON;;;Musée Départemental du Compagnonnage;Le Bourg;71570;ROMANECHE-THORINS;http://www.cg71.fr/musee_compagnonnage/ ou http://musee-compagnonnage.cg71.fr;46.186127;4.741798
BOURGOGNE;SAONE ET LOIRE;01/02/2003;NON;;;Musée du Terroir;Le Champ Bressan;71470;ROMENAY;;46.501598;5.06602
BOURGOGNE;SAONE ET LOIRE;01/02/2003;NON;;;Musée Départemental de Préhistoire de Solutré;;71960;SOLUTRE-POUILLY;www.musees-bourgogne.org;46.294797;4.736366
BOURGOGNE;SAONE ET LOIRE;01/02/2003;NON;;;Hôtel Dieu - Musée Greuze;21, rue de l'hôpital;71700;TOURNUS;Site des musées de Bourgogne;46.562137;4.910839
BOURGOGNE;SAONE ET LOIRE;01/02/2003;OUI;Non prévu;;Musée Bourguignon -  Perrin de Puycousin;8, Place de l'Abbaye;71700;TOURNUS;Site des musées de Bourgogne;46.566134;4.909274
BOURGOGNE;SAONE ET LOIRE;01/02/2003;NON;;;Maison du Blé et du Pain;2, Rue de l'Egalité;71350;VERDUN-SUR-LE-DOUBS;www.verdunsurledoubs.fr rubrique culture ou www.ecomusee-de-la-bresse.com;46.899606;5.021369
BOURGOGNE;YONNE;01/02/2003;NON;;;Musée Leblanc-Duvernois;9 bis, Rue d'Egleny;89000;AUXERRE;Site des musées de Bourgogne;47.795393;3.566248
BOURGOGNE;YONNE;01/02/2003;NON;;;Muséum - Maison de l'Eau;5, Boulevard Vauban;89000;AUXERRE;Site des musées de Bourgogne;47.796936;3.564362
BOURGOGNE;YONNE;01/02/2003;NON;;;Musée d'Art et d'Histoire;"Abbaye St-Germain
2 bis, Place Saint-Germain";89000;AUXERRE;Site des musées de Bourgogne;47.800283;3.571975
BOURGOGNE;YONNE;01/02/2003;NON;;;Musée de l'Avallonnais;"5, Rue du Collège
B.P. 67";89206;AVALLON Cedex;www.museeavallonnais.fr- site des musées de Bourgogne - site ville;47.486968;3.906795
BOURGOGNE;YONNE;01/02/2003;NON;;;Musée des Arts Naïfs et Populaires de Noyers sur Serein;25, Rue de l'Eglise;89310;NOYERS-SUR-SEREIN;Site des musées de Bourgogne ou www.noyers-sur-serein.com/artnaif.htm;47.72104;3.966631
BOURGOGNE;YONNE;23/06/2008;NON;;;Musée de l'Aventure du Son;Place de l'hôtel de ville;89170;SAINT-FARGEAU;www.aventureduson.fr;47.641201;3.070611
BOURGOGNE;YONNE;01/02/2003;NON;;;Musée Colette;Château;89520;SAINT-SAUVEUR-EN-PUISAYE;www.centre-colette.com - http://www.yonne-89.net/MuseeColette.htm;47.617677;3.199325
BOURGOGNE;YONNE;01/02/2003;NON;;;Musée Muncipal;Place de la Cathédrale;89100;SENS;Site des musées de Bourgogne;48.197826;3.282682
BOURGOGNE;YONNE;01/02/2003;OUI;Non prévue;;Musée Municipal de Tonnerre;22, Rue Rougemont;89700;TONNERRE;;47.855191;3.97484
BOURGOGNE;YONNE;01/02/2003;NON;15-mars-06;;Musée Zervos;"Rue Saint-Etienne
Maison Romain-Rolland";89450;VEZELAY;www.musee-zervos.fr;;
BOURGOGNE;YONNE;01/02/2003;NON;;;Musée Villeneuvien;Porte de Joigny et 2, Rue Carnot;89500;VILLENEUVE-SUR-YONNE;Site de la ville;48.080297;3.294088
BOURGOGNE;YONNE;01/02/2003;NON;2008;;Musée d'Art et d'Histoire du Puisaye;Rue Paul-Huillard;89130;VILLIERS-SAINT-BENOIT;;47.780167;3.207453
BRETAGNE;COTES D'ARMOR;01/02/2003;NON;;;Musée du Château de Dinan;Rue du Château;22100;DINAN;www.mairie-dinan.com;48.450306;-2.043857
BRETAGNE;COTES D'ARMOR;02/05/2002;NON;;;Musée Mathurin Meheut;"Place du Martray
B.P. 70418";22404;LAMBALLE Cedex;www.musee-meheut.fr;;
BRETAGNE;COTES D'ARMOR;01/02/2003;NON;;;Musée d'Art et d'Histoire;"Cour Francis Renaud
Rue des Lycéens Martyrs";22000;SAINT-BRIEUC;www.mairie-saint-brieuc.fr;;
BRETAGNE;FINISTERE;06/01/2002;NON;;Musée National de la Marine de Paris;Musée National de la Marine;Château de Brest;29240;BREST;www.musee-marine.fr/brest;48.385372;-4.488366
BRETAGNE;FINISTERE;01/02/2003;NON;;;Musée des Beaux-Arts de Brest;24, Rue Traverse;29200;BREST;www.musee-brest.com;48.385326;-4.490018
BRETAGNE;FINISTERE;01/02/2003;NON;;;Ecomusée des Monts d'Arrée - Moulins de Kerouat;Moulins de Kerouat;29450;COMMANA;www.ecomusee-monts-arree.fr;48.415821;-4.006179
BRETAGNE;FINISTERE;01/02/2003;NON;;;Musée de la Pêche;"Concarneau Cornouaille Agglomération
3, Rue Vauban";29900;CONCARNEAU;www.concarneau-cornouaille.fr - www.musee-peche.fr;47.872103;-3.915485
BRETAGNE;FINISTERE;01/02/2003;NON;;;Le Port-Musée;Place de l'Enfer;29100;DOUARNENEZ;www.port-musee.org;48.092809;-4.332891
BRETAGNE;FINISTERE;01/02/2003;OUI;2018;;Musée de Morlaix;Place des Jacobins;29600;MORLAIX;www.musee.ville.morlaix.fr;48.577109;-3.825372
BRETAGNE;FINISTERE;01/02/2003;NON;;;Musée des Phares et Balises;Le Créac'h;29242;OUESSANT;www.parc-naturel-armorique.fr;48.454477;-5.087351
BRETAGNE;FINISTERE;01/02/2003;NON;;;Ecomusée de l'Île d'Ouessant - Maison du Niou Huella;Le Niou Huella;29242;OUESSANT;www.parc-naturel-armorique.fr;48.460406;-5.110939
BRETAGNE;FINISTERE;01/02/2003;NON;;;Musée de Pont-Aven;Place de l'Hôtel de Ville;29930;PONT-AVEN;www.pontaven.fr;47.855413;-3.747175
BRETAGNE;FINISTERE;01/02/2003;NON;;;Musée Bigouden;Square de l'Europe;29120;PONT-L'ABBE;www.museebigouden.fr;47.862215;-4.236762
BRETAGNE;FINISTERE;01/02/2003;NON;;;Musée des Beaux-Arts;40, Place Saint-Corentin;29000;QUIMPER;http//musee-beauxarts.quimper.fr;47.996206;-4.10238
BRETAGNE;FINISTERE;01/02/2003;NON;;;Musée Départemental Breton;"Palais des Evêques
1, Rue du Roi Gradlon";29000;QUIMPER;www.cg29.fr/culture/mdb.htm - Site en cours;47.995125;-4.102602
BRETAGNE;FINISTERE;01/02/2003;NON;;;Ecomusée des Monts d'Arrée - Maison Cornec;Maison Cornec;29190;RIVOAL;www.ecomusee-monts-arree.fr;;
BRETAGNE;FINISTERE;01/02/2003;NON;;;Musée de l'Ecole Rurale en Bretagne;Kergroas;29560;TREGARVAN;www.musee-ecole.fr;48.244346;-4.225059
BRETAGNE;ILE ET VILAINE;01/02/2003;OUI;;;Ecomusée du Pays de Montfort;2, Rue du Château;35160;MONTFORT-SUR-MEU;www.ecomusee-broceliande.com  - http://ecomuseepaysmontfort.free.fr/;48.137765;-1.956378
BRETAGNE;ILE ET VILAINE;01/02/2003;OUI;Définitive;;Musée de la Faucillonnaie;Manoir de la Faucillonnaie;35500;MONTREUIL-SOUS-PEROUSE;Site de l'office du tourisme;48.154961;-1.238899
BRETAGNE;ILE ET VILAINE;01/02/2003;NON;;;Ecomusée du Pays de Rennes;"Ferme de la Bintinais
Route de Noyal-Châtillon-sur-Seiche";35200;RENNES;www.ecomusee-rennes-metropole.fr;;
BRETAGNE;ILE ET VILAINE;06/01/2002;NON;;;Musée des Beaux-Arts;20, Quai Emile Zola;35100;RENNES;www.mbar.org;48.109834;-1.675861
BRETAGNE;ILE ET VILAINE;01/02/2003;NON;Mi-mars 2006;;Musée de Bretagne;"46, boulevard Magenta
CS 51138";35011;RENNES Cedex;www.musee-bretagne.fr;48.105242;-1.673896
BRETAGNE;ILE ET VILAINE;01/02/2003;NON;;;Musée d'Histoire de la Ville de Saint-Malo;"Château
Esplanade Félicité Lamennais - B.P. 147";35401;SAINT-MALO CEDEX;Site de la ville;;
BRETAGNE;ILE ET VILAINE;01/02/2003;NON;;;Musée International du Long-Cours Cap-Hornier;"Tour Solidor
Esplanade du Commandant Menguy - B.P. 147";35401;SAINT-MALO CEDEX;Site de la ville - www.ville-saint-malo.fr;;
BRETAGNE;ILE ET VILAINE;01/02/2003;NON;;;Musée Saint-Nicolas;15, Rue Pasteur;35506;VITRE;site de l'office du tourisme;48.125622;-1.216099
BRETAGNE;ILE ET VILAINE;01/02/2003;NON;;;Musée des Rochers-Sévigné;Route d'Argentré du Plessis;35500;VITRE;site de l'office du tourisme;48.099994;-1.191075
BRETAGNE;ILE ET VILAINE;01/02/2003;NON;;;Musée du Château;Place du Château;35506;VITRE Cedex;site de l'office du tourisme;48.12432;-1.214152
BRETAGNE;MORBIHAN;01/02/2003;NON;;;Ecomusée de Saint-Dégan;;56400;BREC'H;www.ecomusee-st-degan.fr;47.720736;-2.989176
BRETAGNE;MORBIHAN;01/02/2003;NON;;;Musée de Préhistoire J. Miln- Z. Le-Rouzic;10, Place de la chapelle;56340;CARNAC;www.museedecarnac.com;47.584531;-3.079164
BRETAGNE;MORBIHAN;01/02/2003;OUI;Pas d'info;;Ecomusée de l'Île de Groix;Port-Tudy;56590;ILE DE GROIX;http://ecomusee.groix.free.fr;47.63973;-3.444863
BRETAGNE;MORBIHAN;01/02/2003;NON;;;Ecomusée Industriel des Forges;Mail François Giovannelli;56650;INZINZAC-LOCHRIST;www.inzinzac-lochrist.fr/Ecomusee-des-Forges.6681.0.html;47.824797;-3.252319
BRETAGNE;MORBIHAN;16/01/2012;NON;;;Musée du Faouët;1, Rue de Quimper;56320;LE FAOUET;www.museedufaouet.fr;48.031817;-3.490833
BRETAGNE;MORBIHAN;01/02/2003;NON;;;Musée de la Compagnie des Indes;Citadelle de Port-Louis;56290;PORT-LOUIS;http://musee.lorient.fr;47.706409;-3.353649
BRETAGNE;MORBIHAN;01/02/2003;NON;;Musée National de la Marine de Paris;Musée National de la Marine;Citadelle de Port-Louis;56290;PORT-LOUIS;www.musee-marine.fr/port-louis;47.706409;-3.353649
BRETAGNE;MORBIHAN;01/02/2003;NON;;;Musée de la Résistance Bretonne;Les Hardys-Behelec;56140;SAINT-MARCEL - MALESTROIT;www.resistance-bretonne.com;47.80168;-2.432061
BRETAGNE;MORBIHAN;01/02/2003;NON;;;Musée du Château de Suscinio;;56370;SARZEAU;www.suscinio.info;47.48788;-2.798596
BRETAGNE;MORBIHAN;01/02/2003;NON;;;Musée d'Histoire et d'Archéologie de Vannes;"Château Gaillard
2, Rue Noé";56000;VANNES;;47.656705;-2.757726
BRETAGNE;MORBIHAN;01/02/2003;NON;;;La Cohue, Musée des Beaux-Arts de vannes;9 et 15 Place Saint-Pierre;56000;VANNES;;47.657693;-2.757556
CENTRE;CHER;01/02/2003;NON;;;Musée des Meilleurs Ouvriers de France;Place Etienne Dolet;18000;BOURGES;Site de la ville www.ville-bourges.fr;47.082181;2.398248
CENTRE;CHER;01/02/2003;NON;;;Musée d'Histoire Naturelle Gabriel Foucher;Parc Saint-Paul;18000;BOURGES;www.museum-bourges.net;47.069228;2.412463
CENTRE;CHER;01/02/2003;NON;;;Musée du Berry;"Hôtel Cujas
4, Rue des Arènes";18000;BOURGES;site de la ville www.ville-bourges.fr;47.08537;2.392969
CENTRE;CHER;01/02/2003;NON;;;Musée Estève;"Hôtel des Echevins
13, Rue Edouard Branly";18000;BOURGES;Site de la ville : www.ville-bourges.fr;47.085951;2.396195
CENTRE;CHER;01/02/2003;NON;;;Musée des Arts Décoratifs;"Hôtel Lallemant
5, Rue de l'Hôtel Lallemant";18000;BOURGES;Site de la ville www.ville-bourges.fr;47.084605;2.398378
CENTRE;CHER;01/02/2003;NON;;;Musée Emile Chénon;10-12, Rue de la Victoire;18370;CHATEAUMEILLANT;;46.561505;2.196409
CENTRE;CHER;01/02/2003;NON;;;Musée du Château Charles VII;Place du Général Leclerc;18500;MEHUN-SUR-YEVRE;http://www.ville-mehun-sur-yevre.fr/Le-Château;47.143299;2.216615
CENTRE;CHER;01/02/2003;NON;;;Musée Saint-Vic;Cours Manuel;18200;SAINT-AMAND-MONTROND;;46.720866;2.506685
CENTRE;CHER;01/02/2003;OUI;;;Musée Municipal - Fours Banaux;"Service patrimoine
Place Aristide Briand";18100;VIERZON;site de la ville;;
CENTRE;EURE ET LOIR;01/02/2003;OUI;Pas de musée;;Musée Bonnevallais;Rue des Ecoles;28800;BONNEVAL;;48.183865;1.390081
CENTRE;EURE ET LOIR;01/02/2003;NON;;;Muséum des Sciences Naturelles et de Préhistoire;5 bis, Bd de la Courtille;28000;CHARTRES;site de la ville : www.ville-chartres.fr ou http://perso.wanadoo.fr/samnel.museum/;48.441822;1.490983
CENTRE;EURE ET LOIR;01/02/2003;NON;;;Musée des Beaux-Arts;"Direction des Arts et du Patrimoine Culturel et Historique
29, Cloître Notre-Dame";28000;CHARTRES;www.ville-chartres.fr ou www.musees.regioncentre.fr/defaulttest.php;;
CENTRE;EURE ET LOIR;01/02/2003;NON;;;Conservatoire du Machinisme et des Pratiques Agricoles;1, rue de la République;28300;CHARTRES-MAINVILLIERS;www.lecompa.com;48.446888;1.476576
CENTRE;EURE ET LOIR;01/02/2003;NON;;;Musée des Beaux-Arts et d'Histoire Naturelle;3, rue Toufaire;28200;CHATEAUDUN;www.ville-chateaudun.fr ou www.musees.regioncentre.fr;48.070792;1.327905
CENTRE;EURE ET LOIR;01/02/2003;NON;;;Musée d'Art et d'Histoire Marcel Dessal;5-7, Place du musée;28100;DREUX;www.musees.regioncentre.fr - site de la région;48.733472;1.368066
CENTRE;EURE ET LOIR;01/02/2003;NON;;;Musée Marcel Proust;"4, rue du Docteur Proust
B.P. 20025";28120;ILLIERS-COMBRAY;http://perso.orange.fr/marcelproust/;48.29985;1.243452
CENTRE;EURE ET LOIR;01/02/2003;NON;;;Musée du Château Saint-Jean;Rue du Château;28400;NOGENT-LE-ROTROU;www.ville-nogent-le-rotrou.fr/html/art_cult/musee/collec.htm;48.318117;0.823574
CENTRE;EURE ET LOIR;01/02/2003;OUI;2015;;Musée Farcot;Place Farcot;28700;SAINVILLE;mairie.perso.fr/sainville/index.htm;48.415949;1.879013
CENTRE;INDRE;01/02/2003;NON;;;Musée de la Chemiserie et de l'Elégance Masculine;"Rue Charles Brillaud
BP 154";36200;ARGENTON-SUR-CREUSE;http://chemiserie.cc-argenton.fr;46.588407;1.518501
CENTRE;INDRE;01/02/2003;NON;2004;;Château Musée;31/33 Rue Hersent Luzarche;36290;AZAY-LE-FERRON;www.château-azay-le-ferron.com;46.851361;1.069524
CENTRE;INDRE;01/02/2003;NON;02-mai-01;;Musées de Châteauroux - Hôtel Bertrand;2, Rue Descente-des-Cordeliers;36000;CHATEAUROUX;www.ville-chateauroux.fr - Site de la ville;46.813737;1.694262
CENTRE;INDRE;02/05/2002;NON;;;Musée de l'Hospice Saint-Roch;"23, Rue de l'Hospice Saint-Roch
B.P. 150";36100;ISSOUDUN Cedex;www.issoudun.fr;46.945388;1.994497
CENTRE;INDRE;01/02/2003;NON;;;Musée George Sand et de la Vallée Noire;71, Rue Venôse;36400;LA CHATRE;Site de la région ou www.pays-george-sand.com;46.581939;1.989964
CENTRE;INDRE;01/02/2003;OUI;Non définie;;Musée de Géologie Régionale;;36600;LANGE;;47.064325;1.485945
CENTRE;INDRE;01/02/2003;NON;;;Musée Ornithologique (Ecomusée de la Brenne);Château Naillac;36300;LE BLANC;Site de la région centre;46.629212;1.061409
CENTRE;INDRE;01/02/2003;NON;;;Musée Archéologique d'Argentomagus;"""Les Mersans""
B.P. 6";36200;SAINT-MARCEL;www.argentomagus.com ou www.argentomagus.cc-argenton.fr;;
CENTRE;INDRE ET LOIRE;01/02/2003;OUI;Non prévue;;Musée de la poste;6, Rue Joyeuse;37400;AMBOISE;;47.411309;0.984736
CENTRE;INDRE ET LOIRE;01/02/2003;NON;;;Musée de l'Hôtel de Ville;"60, Rue Concorde
B.P. 247";37402;AMBOISE Cedex;Site de la ville www.ville-amboise.fr;47.413209;0.984493
CENTRE;INDRE ET LOIRE;01/02/2003;NON;;;Musée du Vieux Chinon;44, Rue Haute-Saint-Maurice;37500;CHINON;www.chinon-histoire.org;47.167125;0.23767
CENTRE;INDRE ET LOIRE;01/02/2003;NON;07-avr-06;;"""Maison Musée"" René Descartes";29, Rue Descartes;37160;DESCARTES;www.ville-descartes.fr/pratique/f_pratique.htm;46.972623;0.699988
CENTRE;INDRE ET LOIRE;30/04/2002;NON;20-sept-09;;Musée de Préhistoire du Grand Pressigny;Château du Grand-Pressigny;37350;LE GRAND PRESSIGNY;www.prehistoiregrandpressigny.fr;46.92224;0.804273
CENTRE;INDRE ET LOIRE;01/02/2003;NON;;;Musée Lansyer;1, rue Lansyer;37600;LOCHES;Site de la région centre ou http://www.lochesentouraine.com;47.126829;0.997457
CENTRE;INDRE ET LOIRE;01/02/2003;OUI;Non prévue;;Musée du Terroir;;37600;LOCHES;;47.126959;0.989963
CENTRE;INDRE ET LOIRE;01/02/2003;NON;;;Musée de l'Hôtel de Ville;1, Place du Marché;37120;RICHELIEU;www.ville-richelieu.fr;47.012709;0.324356
CENTRE;INDRE ET LOIRE;30/04/2002;NON;;;Musée Balzac;Château de Saché;37190;SACHE;Site hébergé sur www.lysdanslavallee.fr,;47.245773;0.54394
CENTRE;INDRE ET LOIRE;01/02/2003;OUI;Inconnue;;Musée Municipal;Place du Château;37800;SAINTE-MAURE-DE-TOURAINE;www.sainte-maure-de-touraine.fr;47.1115;0.619817
CENTRE;INDRE ET LOIRE;01/02/2003;NON;;;Musée du Savignéen;10, Faubourg Rue;37340;SAVIGNE-SUR-LATHAN;www.museedusavigneen.com;47.44581;0.319721
CENTRE;INDRE ET LOIRE;18/07/2002;NON;;;Ecomusée du Véron;80, Route de Candes;37420;SAVIGNY-EN-VERON;www.cc-veron.fr/ecomusee;47.209697;0.124427
CENTRE;INDRE ET LOIRE;30/04/2002;NON;;;Musée Rabelais;Maison de la Devinière;37500;SEUILLY;www.musee-rabelais.fr ou site du conseil général;47.140565;0.179408
CENTRE;INDRE ET LOIRE;01/02/2003;NON;;;Muséum d'Histoire Naturelle;3, Rue du Président Merville;37000;TOURS;www.museum.tours.fr;47.394637;0.68388
CENTRE;INDRE ET LOIRE;06/01/2002;NON;;;Musée des Beaux-Arts;18, Place François Sicard;37000;TOURS;www.mba.tours.fr ou www.musees-regioncentre.fr;47.394698;0.694004
CENTRE;INDRE ET LOIRE;01/02/2003;OUI;;;Musée des Vins de Touraine;"Cellier Saint-Julien
16, Rue Nationale";37000;TOURS;site de la ville;47.393831;0.687403
CENTRE;INDRE ET LOIRE;01/02/2003;NON;;;Musée du Compagnonnage;"Cloître Saint-Julien
8, Rue Nationale";37000;TOURS;www.museecompagnonnage.fr;47.396086;0.686726
CENTRE;INDRE ET LOIRE;01/02/2003;OUI;2013;;Musée de l'Hôtel Goüin;"25, Rue du Commerce
B.P. 1105";37011;TOURS Cedex;Site du conseil général;47.395094;0.684809
CENTRE;INDRE ET LOIRE;01/02/2003;NON;;;Musée de Minerve;Place du Musée;37290;YZEURES-SUR-CREUSE;;46.785891;0.870036
CENTRE;LOIR ET CHER;01/02/2003;NON;;;Maison de la Magie;1, Place du Château;41000;BLOIS;www.maisondelamagie.fr;47.586104;1.332126
CENTRE;LOIR ET CHER;01/02/2003;NON;;;Château Musées de Blois;Château de Blois;41000;BLOIS;www.chateaudeblois.fr;47.586086;1.332121
CENTRE;LOIR ET CHER;01/02/2003;NON;;;Muséum d'Histoire Naturelle;"""Les Jacobins"" 
Rue Anne de Bretagne";41000;BLOIS;www.ville-blois.fr;47.585156;1.332989
CENTRE;LOIR ET CHER;01/02/2003;NON;;;Musée de la Corbillière;Château de la Corbillière;41500;MER;;47.696527;1.514337
CENTRE;LOIR ET CHER;01/02/2003;NON;;;Atelier Musée Louis Leygue;106, Rue des Venages;41100;NAVEIL;;47.794146;1.031198
CENTRE;LOIR ET CHER;01/02/2003;NON;;;Musée de Sologne;"Moulin du Chapitre
B.P. 147";41206;ROMORANTIN-LANTHENAY Cedex;www.museedesologne.com;;
CENTRE;LOIR ET CHER;01/02/2003;NON;;;Musée Archéologique;Hôtel de Ville;41140;THESEE;www.musees.regioncentre;47.317703;1.323178
CENTRE;LOIR ET CHER;01/02/2003;NON;;;Musée de Vendôme;Cloître de la Trinité;41100;VENDOME;www.vendome.eu/intro/1p1e-421-musee-vendome.html-vendome.html ou www.musees.regioncentre.fr;;
CENTRE;LOIRET;01/02/2003;NON;;;Musée Municipal Théâtre Forain et Archéologique;Quartier du Paradis;45410;ARTENAY;www.musee-theatre-forain.fr;48.08201;1.879598
CENTRE;LOIRET;01/02/2003;OUI;Indéterminée;;Musée Daniel Vannier;"Hôtel de Ville - Service patrimoine
20, Rue du Change";45190;BEAUGENCY;site de la région ou www.patrimoine-beaugency.fr;47.77814;1.630916
CENTRE;LOIRET;01/02/2003;NON;;;Musée de la Marine de Loire;"Ecuries du Château
1, Place Aristide Briand";45110;CHATEAUNEUF-SUR-LOIRE;www.chateauneuf-sur-loire.com ou www.musees-centre.com;47.865168;2.21918
CENTRE;LOIRET;01/02/2003;NON;;;Musée d'Art et d'Archéologie;2, Faubourg Puyrault;45230;CHATILLON-COLIGNY;http://www.ifrance.com/chatillon-coligny;47.820625;2.844906
CENTRE;LOIRET;01/02/2003;OUI;2016/2017;;Musée International de la Chasse;"Château de Gien
B.P. 99";45503;GIEN Cedex;www.château-gien.com;;
CENTRE;LOIRET;01/02/2003;NON;Réouvert le 16/11/05;;Musée Gaston Couté;"Espace culturel La Monnaye
22 Rue des Remparts";45130;MEUNG-SUR-LOIRE;www.meung-sur-loire.com;47.825556;1.694889
CENTRE;LOIRET;27/12/2002;OUI;2016/2017;;Musée Girodet;2, rue de la Chaussée;45200;MONTARGIS;www.montargis.fr/musee.htm;47.997843;2.737468
CENTRE;LOIRET;27/12/2002;OUI;;;Musée du Gatinais;7, Rue du Château;45200;MONTARGIS;;47.998314;2.729233
CENTRE;LOIRET;01/02/2003;NON;;;Musée Historique et Archéologique;"Square Abbé Desnoyers
Hôtel Cabu";45000;ORLEANS;Site de la ville;;
CENTRE;LOIRET;06/01/2002;NON;;;Muséum des Sciences Naturelles;6, Rue Marcel Proust;45000;ORLEANS;www.orleans.fr;47.90807;1.907907
CENTRE;LOIRET;06/01/2002;NON;;;Musée des Beaux-Arts;1, rue Fernand Rabier;45000;ORLEANS;Région : www.musees.regioncentre.fr ou  www.orleans.fr (rubrique culture/musee);47.903147;1.909903
CENTRE;LOIRET;01/02/2003;OUI;Non encore prévue;;Musée Municipal;"Direction de l'action culturelle
5, Place Denis Poisson - B.P. 706";45307;PITHIVIERS Cedex;;;
CHAMPAGNE-ARDENNE;ARDENNES;01/02/2003;NON;sept-05;;Musée de la Maison de la Dernière Cartouche;12 Avenue de la Dernière Cartouche;8140;BAZEILLES;www.maisondeladernierecartouche.com;49.681811;4.975009
CHAMPAGNE-ARDENNE;ARDENNES;01/02/2003;NON;;;Musée Arthur Rimbaud;Quai Arthur Rimbaud;8000;CHARLEVILLE-MEZIERES;www.mairie-charlevillemezieres.fr/htm/culture/rimbaud.htm;49.776058;4.720484
CHAMPAGNE-ARDENNE;ARDENNES;01/02/2003;NON;;Musée Arthur Rimbaud;Maison des Ailleurs - Arthur Rimbaud;Quai Rimbaud;8000;CHARLEVILLE-MEZIERES;Site de la ville;49.776058;4.720484
CHAMPAGNE-ARDENNE;ARDENNES;01/02/2003;NON;;;Musée de l'Ardenne;31, Place Ducale;8000;CHARLEVILLE-MEZIERES;www.mairie-charlevillemezieres.fr/htm/culture/rimbaud.htm;49.773621;4.721113
CHAMPAGNE-ARDENNE;ARDENNES;01/02/2003;OUI;Non prévue;;Musée de Givet;"Mairie
11, Place Carnot";8600;GIVET;;50.136341;4.8247
CHAMPAGNE-ARDENNE;ARDENNES;01/02/2003;NON;;;Musée du Feutre;Mairie;8210;MOUZON;www.culture.gouv.fr/champagne-ardenne/2culture/musee_france/musee_mouzon.html;49.609209;5.075187
CHAMPAGNE-ARDENNE;ARDENNES;01/02/2003;OUI;Pas d'info;;Musée du Rethelois et du Porcien;Place Noiret-Chaigneau;8300;RETHEL;;49.506881;4.363521
CHAMPAGNE-ARDENNE;ARDENNES;01/02/2003;NON;;;Musée du Château-Fort;BP 10322;8200;SEDAN;www.chateau-fort-sedan.fr;49.69468;4.920339
CHAMPAGNE-ARDENNE;AUBE;01/02/2003;OUI;Non prévue;;Musée Municipal;"Hôtel de ville
Place Carnot - B.P. 110";10202;BAR-SUR-AUBE CEDEX;;;
CHAMPAGNE-ARDENNE;AUBE;01/02/2003;NON;;;Musée Napoléon Ier;34, Rue de l'Ecole Militaire;10500;BRIENNE-LE-CHATEAU;www.musee-napoleon-brienne.fr;48.388915;4.528446
CHAMPAGNE-ARDENNE;AUBE;01/02/2003;NON;;;Musée de la Résistance;Rue Boursault;10250;MUSSY-SUR-SEINE;Site de l'OT;47.977391;4.498921
CHAMPAGNE-ARDENNE;AUBE;01/02/2003;OUI;09-avr-11;;Musée Paul Dubois - Alfred Boucher;"Rue Gué de la Loge
B.P. 40";10401;NOGENT-SUR-SEINE Cedex;www.musee-nogent-sur-seine.fr;;
CHAMPAGNE-ARDENNE;AUBE;01/02/2003;NON;;;Musée des Beaux-Arts;1, Rue Chrestien-de-Troyes;10000;TROYES;www.musees-troyes.com;48.300638;4.08003
CHAMPAGNE-ARDENNE;AUBE;01/02/2003;NON;;;Musée Historique de Troyes et de la Champagne;4, Rue Vauluisant;10000;TROYES;;48.294239;4.071824
CHAMPAGNE-ARDENNE;AUBE;01/02/2003;NON;;;Pharmacie Musée de l'Hôtel-Dieu;Quai des Comtes-de-Champagne;10000;TROYES;;48.300768;4.077528
CHAMPAGNE-ARDENNE;AUBE;01/02/2003;NON;;;Maison de l'Outil  et de la Pensée Ouvrière;7, Rue de La Trinité;10000;TROYES;www.maison-de-l-outil.com;48.294907;4.07261
CHAMPAGNE-ARDENNE;AUBE;01/02/2003;NON;;;Musée de la Bonneterie;"Conservation des Musées 
2, rue Chrestien de Troyes";10000;TROYES;www.ville-troyes.fr;48.300945;4.0797
CHAMPAGNE-ARDENNE;AUBE;01/02/2003;NON;;;Muséum d'Histoire Naturelle;4, Rue Chrestiens de Troyes;10000;TROYES;Site de la ville;48.300722;4.07987
CHAMPAGNE-ARDENNE;AUBE;01/02/2003;NON;;;Musée d'Art Moderne;14, Place Saint-Pierre;10000;TROYES;Site de la ville;48.300046;4.080194
CHAMPAGNE-ARDENNE;HAUTE-MARNE;01/02/2003;NON;Début 2005;;Musée Municipal;"Pôle Culturel - Médiathèque-musée de France
Parc du Château";52400;BOURBONNE-LES-BAINS;www.culture.gouv.fr/champagne-ardenne/2culture/musee_france/musee_bourbonne.html;;
CHAMPAGNE-ARDENNE;HAUTE-MARNE;01/02/2003;NON;;;Musée des Beaux-Arts et d'Archéologie;Place du Palais;52000;CHAUMONT;http://www.ville-chaumont.fr;48.112453;5.137406
CHAMPAGNE-ARDENNE;HAUTE-MARNE;01/02/2003;OUI;;;Musée de l'Affiche - médiathèque;7/9, Avenue Foch;52000;CHAUMONT;;48.110208;5.129477
CHAMPAGNE-ARDENNE;HAUTE-MARNE;01/02/2003;OUI;05-oct-13;;Maison des Lumière Denis Diderot (ex Musée du Breuil de Saint-Germain);1, Place Pierre Burelle;52200;LANGRES;www.maisondeslumieres.org;47.866417;5.331753
CHAMPAGNE-ARDENNE;HAUTE-MARNE;01/02/2003;NON;;;Musée d'Art et d'Histoire;"Place du Centenaire
B.P. 183";52204;LANGRES Cedex;En cours de réalisation;;
CHAMPAGNE-ARDENNE;HAUTE-MARNE;18/04/2002;NON;;;Musée de la Coutellerie;"Place Charles de Gaulle
B.P. 1";52800;NOGENT;www.villedenogent52.com;;
CHAMPAGNE-ARDENNE;HAUTE-MARNE;01/02/2003;OUI;Février 2013;;Musée Municipal;17, Rue de la Victoire;52100;SAINT-DIZIER;Site de la mairie;48.637908;4.9485
CHAMPAGNE-ARDENNE;MARNE;05/07/2012;NON;;;Musée du Cloître de Notre-Dame-en-Vaux;Rue Nicolas Durant;51000;CHALONS-EN-CHAMPAGNE;;48.958112;4.362901
CHAMPAGNE-ARDENNE;MARNE;01/02/2003;NON;;;Musée Garinet;13, rue Pasteur;51000;CHALONS-EN-CHAMPAGNE;;48.955828;4.366495
CHAMPAGNE-ARDENNE;MARNE;01/02/2003;NON;;;Musée Municipal;Place Alexandre Godart;51000;CHALONS-EN-CHAMPAGNE;;48.956869;4.363827
CHAMPAGNE-ARDENNE;MARNE;01/02/2003;OUI;Non prévue;;Musée Municipal d'Epernay;13, Avenue de Champagne;51200;EPERNAY;;49.042901;3.961379
CHAMPAGNE-ARDENNE;MARNE;01/02/2003;OUI;Fermeture définitive;;Ecomusée de la Montagne de Reims;"Maison du Parc
Chemin de Nanteuil";51160;POURCY;www.parc-montagnedereims.fr;;
CHAMPAGNE-ARDENNE;MARNE;01/02/2003;OUI;Fermeture définitive;;Musée de l'Ancien Collège des Jésuites;"Direction de la Culture de la ville de Reims
1, place Museux";51100;REIMS;;49.253125;4.04484
CHAMPAGNE-ARDENNE;MARNE;01/02/2003;NON;;;Musée Hôtel le Vergeur;36, Place du Forum;51100;REIMS;www.museelevergeur.com;49.257013;4.034043
CHAMPAGNE-ARDENNE;MARNE;01/02/2003;NON;;;Musée Saint-Rémi;53, rue Simon;51100;REIMS;Site de la ville;49.243111;4.040351
CHAMPAGNE-ARDENNE;MARNE;06/01/2002;NON;;;Musée des Beaux-Arts de Saint-Denis;8, Rue Chanzy;51100;REIMS;site de la ville;49.253442;4.030921
CHAMPAGNE-ARDENNE;MARNE;01/02/2003;OUI;Non connue;;Musée de l'Argonne Viard-Morel;Place Général Leclerc;51800;SAINTE-MENEHOULD;;49.092431;4.898023
CORSE;CORSE DU SUD;01/02/2003;NON;juin-10;;Musée Fesch;50-52, rue du Cardinal Fesch;20000;AJACCIO;www.musee-fesch.com;41.922392;8.738549
CORSE;CORSE DU SUD;06/01/2002;NON;;;Musée de la Maison Bonaparte;Rue Saint-Charles;20000;AJACCIO;www.musee-maisonbonaparte.fr - www.musees-nationaux-napoleoniens.org;41.917772;8.738068
CORSE;CORSE DU SUD;01/02/2003;NON;;;Musée Napoléonien;"Hotel de Ville
Avenue Antoine Serafini";20000;AJACCIO;http://www.napoleon.org ou http://www.ajaccio.fr/;41.918813;8.738403
CORSE;CORSE DU SUD;01/02/2003;NON;2008;;Musée de l'Alta Rocca;"Avenue Lieutenant Aviateur de Peretti
Quartier Pratu";20170;LEVIE;http://www.levie-altarocca.com;;
CORSE;CORSE DU SUD;01/02/2003;OUI;Non encore prévue;;Musée de Préhistoire Corse;Boulevard Jacques Nicolai;20100;SARTENE;;41.620393;8.97461
CORSE;HAUTE-CORSE;01/02/2003;NON;;;Musée Départemental d'Archéologie d'Aléria;Fort de Matra;20270;ALERIA;www.cg2b.fr;42.103684;9.511502
CORSE;HAUTE-CORSE;01/02/2003;NON;25-juin-10;;Musée de Bastia;"Mairie de Bastia
Avenue Pierre Giudicelli";20410;BASTIA Cedex;www.musee-bastia.com;42.702212;9.451447
CORSE;HAUTE-CORSE;01/02/2003;NON;juin-97;;Musée de la Corse;"La Citadelle
B.P. 73";20250;CORTE;www.musee-corse.com;;
CORSE;HAUTE-CORSE;05/07/2012;OUI;2018;;Musée Archéologique de Mariana - Prince Rainier III de Monaco;Mairie de Lucciana;20290;LUCCIANA;http://www.lucciana.fr/mariana,-site-historique-le-musee-archeologique-de-mariana-%20-%C2%AB-prince-rainier-iii-de-monaco-%C2%BB_202.html;42.542624;9.497059
CORSE;HAUTE-CORSE;01/02/2003;NON;;;Musée Départemental Pascal Paoli;Hameau de la Stretta 20261;20218;MOROSAGLIA;www.cg2b.fr;42.437734;9.308812
FRANCHE-COMTE;DOUBS;06/01/2002;NON;;;Musée des Beaux-Arts et d'Archéologie;1, Place de la Révolution;25000;BESANCON;www.musee-arts-besancon.org;47.240051;6.022927
FRANCHE-COMTE;DOUBS;01/02/2003;NON;;;Muséum de Besançon;"La Citadelle
Rue des Fusillés de la Résistance";25000;BESANCON;www.citadelle.com;47.232614;6.032133
FRANCHE-COMTE;DOUBS;01/02/2003;NON;;;Musée de la résistance et de la Déportation;"La Citadelle
Rue des Fusillés";25000;BESANCON;www.citadelle.com;47.232614;6.032133
FRANCHE-COMTE;DOUBS;01/02/2003;NON;;;Musée Comtois;"LA CITADELLE
Rue des Fusillés";25000;BESANCON;www.citadelle.com;47.232614;6.032133
FRANCHE-COMTE;DOUBS;01/02/2003;NON;21-juin-02;;Musée du Temps;96, Grande rue;25000;BESANCON;www.besancon.fr/museedutemps;47.23602;6.026659
FRANCHE-COMTE;DOUBS;01/02/2003;NON;;;Musée Beurnier-Rossel;"8, Place Saint-Martin
B.P. 95287";25200;MONTBELIARD;www.montbeliard.fr;47.509957;6.797684
FRANCHE-COMTE;DOUBS;01/02/2003;NON;;;Musée du Château des Ducs de Wurtemberg;B.P. 95287;25205;MONTBELIARD Cedex;www.montbeliard.fr;48.890388;5.555086
FRANCHE-COMTE;DOUBS;01/02/2003;NON;;;Musée de Plein Air des Maisons Comtoises;Rue du Musée;25360;NANCRAY;www.maisons-comtoises.org;47.243044;6.189533
FRANCHE-COMTE;DOUBS;01/02/2003;NON;02-juil-11;;Musée-Maison Natale Gustave Courbet;Place Robert Fernier;25290;ORNANS;http://www.musee-courbet.fr;;
FRANCHE-COMTE;DOUBS;01/02/2003;NON;;;Musée de Pontarlier;2, Place d'Arçon;25300;PONTARLIER;Site de la ville;46.904221;6.354581
FRANCHE-COMTE;HAUTE-SAONE;01/02/2003;NON;;;Musée Départemental Albert Demard;Château de Champlitte;70600;CHAMPLITTE;www.cg70.fr/decouvertes/musee;47.661612;5.466123
FRANCHE-COMTE;HAUTE-SAONE;01/02/2003;NON;;;Ecomusée du Pays de la Cerise;206, Le Petit Fahyr;70220;FOUGEROLLES;www.musees-des-techniques.org;47.907071;6.401161
FRANCHE-COMTE;HAUTE-SAONE;01/02/2003;NON;;;Musée Baron Martin;6, rue Pigalle;70100;GRAY;www.ville-gray.fr;47.446411;5.592781
FRANCHE-COMTE;HAUTE-SAONE;01/02/2003;NON;;;Musée Départemental de la Montagne Albert Demard;Château-Lambert;70440;LE HAUT-DU-THEM;http://musees.cg70.fr;47.845927;6.746415
FRANCHE-COMTE;HAUTE-SAONE;01/02/2003;NON;;;Musée de la Tour des Echevins;36, Rue Victor Genoux;70300;LUXEUIL-LES-BAINS;www.luxeuil.fr;47.816844;6.38053
FRANCHE-COMTE;HAUTE-SAONE;01/02/2003;NON;;;Musée Georges Garret;1, Rue des Ursulines;70000;VESOUL;Site des musées de la région;47.623695;6.155772
FRANCHE-COMTE;JURA;01/02/2003;NON;;;Musée Sarret de Grozon;Grande Rue;39600;ARBOIS;Site des musées de la région;46.903356;5.773137
FRANCHE-COMTE;JURA;01/02/2003;NON;;;Musée de la Vigne et du Vin;"Château Pécauld
B.P. 41";39600;ARBOIS;http://www.juramusees.com/musee-vigne-vin/musee-vigne-vin.htm;;
FRANCHE-COMTE;JURA;01/02/2003;NON;;;Musée Municipal d'Archéologie;26, rue Baronne Delort;39300;CHAMPAGNOLE;www.tourisme.champagnole.com;46.74651;5.907547
FRANCHE-COMTE;JURA;01/02/2003;NON;;;Musée des Beaux-Arts;85, rue des Arènes;39100;DOLE;Site de la ville ou site des musées de la région;47.089059;5.488205
FRANCHE-COMTE;JURA;01/02/2003;OUI;Pas encore ouvert;;Musée d'Archéologie;7, Rue des Cordeliers;39000;LONS-LE-SAUNIER;Site de la ville;46.674433;5.55523
FRANCHE-COMTE;JURA;01/02/2003;NON;;;Musée des Beaux-Arts;Place Philibert de Châlon;39000;LONS-LE-SAUNIER;Site des musées de la région;46.675825;5.553897
FRANCHE-COMTE;JURA;01/02/2003;NON;1er juillet 2012;;Musée du Jouet;5, Rue du Murgin;39260;MOIRANS-EN-MONTAGNE;www.musee-du-jouet.fr et Site des musées de la région;46.433004;5.726307
FRANCHE-COMTE;JURA;26/05/2002;NON;02-mai-03;;Viséum-Musée de la Lunette;Place Jean Jaurès;39400;MOREZ;www.musee-lunette.fr ou www.musees-franchecomte.com;46.529788;6.020053
FRANCHE-COMTE;JURA;01/02/2003;OUI;Pas déterminée;;Musée Municipal de Poligny;"Hôtel de Ville
49, Grande Rue";39800;POLIGNY;www.musee-poligny.fr;46.836426;5.708802
FRANCHE-COMTE;JURA;01/02/2003;NON;06-nov-08;;Musée de l'Abbaye/Donations Guy Bardone - René Genis;3, Place de l'Abbaye;39200;SAINT-CLAUDE;Site des musées de la région;46.386209;5.865239
FRANCHE-COMTE;JURA;01/02/2003;NON;;;Musée des Salines;Place des Salines;39110;SALINS-LES-BAINS;www.salinesdessalins.com ou www.musees-des-techniques.org;46.939895;5.877348
FRANCHE-COMTE;JURA;01/02/2003;OUI;2009 en partie;;Musée Max Claudet;Place des Salines;39110;SALINS-LES-BAINS;http://www.juramusees.fr/1/musee/musees/beaux_arts/musee_max_claudet_salins_les_bains.html;46.939895;5.877348
FRANCHE-COMTE;JURA;01/02/2003;OUI;?;;Musée de l'Artisanat Jurassien;Abbaye de Baume-Les-Messieurs;39210;VOITEUR;;46.707619;5.64848
FRANCHE-COMTE;TERRITOIRE DE BELFORT;01/02/2003;NON;Eté 2012;;Musée Frédéric Japy;16, Rue Frédéric Japy;90500;BEAUCOURT;www.musees-des-techniques.org;47.485011;6.922453
FRANCHE-COMTE;TERRITOIRE DE BELFORT;01/02/2003;NON;;;Musée d'Art et d'Histoire;"Château de Belfort
B.P. 733";90020;BELFORT cedex;www.musees-franchecomte.com;;
FRANCHE-COMTE;TERRITOIRE DE BELFORT;01/02/2003;NON;;;Donation Maurice Jardot;"Musée(s) de Belfort
B.P. 20223";90004;BELFORT Cedex;www.musees-franchecomte.com;;
FRANCHE-COMTE;TERRITOIRE DE BELFORT;01/02/2003;NON;;;Forge-Musée;2, Rue de Lamadeleine;90170;ETUEFFONT;www.musees-des-techniques.org ou www.cc-pays-sous-vosgien.fr;47.722575;6.920842
GUADELOUPE;GUADELOUPE;01/02/2003;OUI;Pas définie;;Ecomusée de Marie-Galante;Habitation Murat;97112;GRAND-BOURG de MARIE-GALANTE;;;
GUADELOUPE;GUADELOUPE;01/02/2003;NON;Août 2004;;Musée Précolombien Edgar Clerc;440 Route de la Rosette;97160;LE MOULE;www.cg971.fr/musees/clerc/index_edgar.htm;16.340101;-61.382285
GUADELOUPE;GUADELOUPE;12/12/2002;NON;;;Musée Municipal Saint-John Perse;9, rue de Nozière;97110;POINTE-A-PITRE;www.sjperse.org/museesjp.htm;16.236416;-61.535945
GUADELOUPE;GUADELOUPE;01/02/2003;OUI;;;Musée l'Herminier;"Office du Tourisme
1 Centre Commercial Marina";97110;POINTE-A-PITRE;;;
GUADELOUPE;GUADELOUPE;01/02/2003;NON;;;Musée Schoelcher;24, Rue Peynier;97110;POINTE-A-PITRE -GUADELOUPE;www.cg971.fr/musees/schoelcher/index_schoecher.htm;16.237697;-61.537737
GUYANE;GUYANE;01/02/2003;NON;;;Musée des Cultures Guyanaises;78, Rue Mme Payé;97300;CAYENNE;www.mcg973.org ou www.amazonian-museum-network.org;4.944611;-52.302857
GUYANE;GUYANE;01/02/2003;NON;;;Musée Départemental Alexandre Franconie;1, Avenue du Général-de-Gaulle;97300;CAYENNE - GUYANE;;4.938177;-52.334359
GUYANE;GUYANE;01/02/2003;NON;25-mai-08;;Ecomusée Municipal d'Approuague-Kaw;"Rue Gaston Monnerville
Le Bourg";97390;REGINA;;16.333767;-61.348355
ILE-DE-FRANCE;ESSONNE;01/02/2003;NON;;;Musée Français de la Photographie;78, Rue de Paris;91570;BIEVRES;www.museedelaphoto.fr;48.762826;2.225102
ILE-DE-FRANCE;ESSONNE;01/02/2003;NON;;;Musée Dunoyer de Segonzac;5, Place des Droits de l'Homme;91800;BOUSSY-SAINT-ANTOINE;;48.688925;2.530019
ILE-DE-FRANCE;ESSONNE;01/02/2003;NON;;;Musée Municipal Robert Dubois-Corneau;16, Rue du Réveillon;91800;BRUNOY;www.brunoy.fr;48.700303;2.500266
ILE-DE-FRANCE;ESSONNE;01/02/2003;NON;;;Musée du Château;Place du Général de Gaulle;91410;DOURDAN;Site de la ville - www.mairie-dourdan.fr;48.529349;2.01149
ILE-DE-FRANCE;ESSONNE;01/02/2003;NON;;;Musée Intercommunal d'Etampes;"Mairie d'Etampes
B.P. 109";91152;ETAMPES Cedex;site de la ville;;
ILE-DE-FRANCE;HAUTS DE SEINE;26/03/2007;NON;sept-10;;Musée Belmondo et de la Sculpture Figurative du XXè siècle;"Château Buchillot
14, Rue de l'Abreuvoir";92100;BOULOGNE-BILLANCOURT;http://www.boulognebillancourt.com;48.847455;2.232701
ILE-DE-FRANCE;HAUTS DE SEINE;01/02/2003;NON;;;Musée-Jardin Paul Landowski;14, Rue Max Blondat;92100;BOULOGNE-BILLANCOURT;;48.844261;2.246847
ILE-DE-FRANCE;HAUTS DE SEINE;01/02/2003;NON;;;Musée Départemental Albert-Kahn;10-14, Rue du Port;92100;BOULOGNE-BILLANCOURT;www.albert-kahn.fr;48.841354;2.227488
ILE-DE-FRANCE;HAUTS DE SEINE;01/02/2003;NON;;;Musée des Années Trente;"Espace Landowski
28, avenue André Morizet";92100;BOULOGNE-BILLANCOURT;Site de l'association des amis -  www.annees30.com/;48.83591;2.239289
ILE-DE-FRANCE;HAUTS DE SEINE;09/03/2004;NON;;;Fondation Arp;21, Rue des Châtaigniers;92140;CLAMART;www.fondationarp.org;48.803529;2.244319
ILE-DE-FRANCE;HAUTS DE SEINE;01/02/2003;NON;;;Musée Municipal d'Art et d'Histoire;2, Rue Gabriel Péri;92700;COLOMBES;Site de la ville - www.mairie-colombes.fr;48.923321;2.252039
ILE-DE-FRANCE;HAUTS DE SEINE;01/02/2003;NON;;;Musée Roybet Fould;"Parc de Bécon
178, Boulevard Saint Denis";92400;COURBEVOIE;;48.900998;2.271279
ILE-DE-FRANCE;HAUTS DE SEINE;06/01/2002;OUI;Disparition est actée;;Musée des Travaux Publics;Mairie de Courbevoie;92400;COURBEVOIE;Site de la ville;48.89371;2.258054
ILE-DE-FRANCE;HAUTS DE SEINE;01/02/2003;NON;;;Musée Français de la Carte à Jouer;16, Rue Auguste Gervais;92130;ISSY-LES-MOULINEAUX;www.issy.com/musee;48.822771;2.273453
ILE-DE-FRANCE;HAUTS DE SEINE;06/01/2002;NON;;Musée Rodin de Paris;Musée - Atelier Rodin;19, Avenue Auguste Rodin;92190;MEUDON;www.musee-rodin.fr;48.813854;2.25249
ILE-DE-FRANCE;HAUTS DE SEINE;01/02/2003;NON;19-mai-12;;Musée d'Art et d'Histoire;11, Rue des Pierres;92190;MEUDON;www.meudon.fr;48.806412;2.234894
ILE-DE-FRANCE;HAUTS DE SEINE;01/02/2003;OUI;Non précisé;;Musée des Automates;"Hôtel Arturo Lopez
12, Rue du Centre";92200;NEUILLY-SUR-SEINE;;48.879608;2.252754
ILE-DE-FRANCE;HAUTS DE SEINE;06/01/2002;NON;;;Musée National des Châteaux de Malmaison et de Bois-Préau;Avenue du Château de Malmaison;92500;RUEIL-MALMAISON;www.chateau-malmaison.fr;48.872958;2.169032
ILE-DE-FRANCE;HAUTS DE SEINE;01/02/2003;NON;;Musée d'Histoire Locale;Musée Franco-Suisse;13, Boulevard Foch;92501;RUEIL-MALMAISON Cedex;Site de la mairie : /www.mairie-rueilmalmaison.fr;48.878122;2.180317
ILE-DE-FRANCE;HAUTS DE SEINE;01/02/2003;NON;;;Musée d'Histoire Locale - Mémoire de la Ville;13, Boulevard Foch;92501;RUEIL-MALMAISON Cedex;Site de la mairie : /www.mairie-rueilmalmaison.fr;48.878122;2.180317
ILE-DE-FRANCE;HAUTS DE SEINE;01/02/2003;NON;;;Musée Municipal de Saint-Cloud;"""Jardin des Avelines""
60, Rue Gounod";92210;SAINT-CLOUD;www.saint-cloud.fr;48.842497;2.208286
ILE-DE-FRANCE;HAUTS DE SEINE;01/02/2003;NON;;;Musée de l'Île de France;;92330;SCEAUX;www.chateau-sceaux.fr ou/www.domaine-de-sceaux.fr (site du conseil général) ou www.sceaux.fr;48.778555;2.288291
ILE-DE-FRANCE;HAUTS DE SEINE;06/01/2002;NON;;;Sèvres - Cité de la Céramique;2, Place de la Manufacture;92310;SEVRES;www.sevresciteceramique.fr;46.575183;0.305931
ILE-DE-FRANCE;HAUTS DE SEINE;01/02/2003;OUI;07-juin-13;;MUS - Musée d'Histoire Urbaine et Sociale;1, Place de la gare de Suresnes-Longchamp;92150;SURESNES;www.ville-suresnes.fr ou http://webmuseo.com/ws/musee-suresnes/app/report/index.html;48.868319;2.221999
ILE-DE-FRANCE;PARIS;06/01/2002;NON;17-mai-06;;Musée National de L'Orangerie des Tuileries;Jardin des Tuileries;75001;PARIS;www.musee-orangerie.fr;48.862968;2.323733
ILE-DE-FRANCE;PARIS;06/01/2002;OUI;2014;;Musée National Picasso;"Hôtel Salé
5, Rue de Thorigny";75003;PARIS;www.musee-picasso.fr;48.8597;2.362644
ILE-DE-FRANCE;PARIS;08/07/2004;NON;;;Musée Cognacq-Jay, Musée du XVIIIe siècle de la ville de Paris;8, Rue Elzévir;75003;PARIS;www.museecognacqjay.paris.fr;48.858257;2.361524
ILE-DE-FRANCE;PARIS;08/07/2004;NON;;;Musée Carnavalet-Histoire de Paris;16, Rue de Sévigné;75003;PARIS;www.carnavalet.paris.fr;48.857573;2.363359
ILE-DE-FRANCE;PARIS;08/07/2004;NON;;;Maison de Victor Hugo;6, Place des Vosges;75004;PARIS;www.maisonsvictorhugo.paris.fr;48.854821;2.366126
ILE-DE-FRANCE;PARIS;06/01/2002;NON;;;Musée National du Moyen Age-Thermes de Cluny;6, Place Paul Painlevé;75005;PARIS;www.musee-moyenage.fr;48.850325;2.343921
ILE-DE-FRANCE;PARIS;06/01/2002;OUI;Pas de date;;Galerie de Minéralogie et de Géologie (Muséum d'Histoire Naturelle);"Jardin des Plantes
36, Rue Geoffroy Saint-Hilaire";75005;PARIS;www.mnhn.fr;48.841491;2.355989
ILE-DE-FRANCE;PARIS;06/01/2002;NON;;;Grande Galerie de l'Evolution (Muséum National d'Histoire Naturelle);"Jardin des Plantes
36, rue Geoffroy Saint-Hilaire";75005;PARIS;www.mnhn.fr;48.841491;2.355989
ILE-DE-FRANCE;PARIS;06/01/2002;OUI;2013;;Galerie de Botanique (Muséum National National d'Histoire Naturelle);;75005;PARIS;www.mnhn.fr;48.844107;2.351541
ILE-DE-FRANCE;PARIS;06/01/2002;OUI;Aucune info;;Galerie d’entomologie (Muséum national d'histoire naturelle);57, Rue Cuvier;75005;PARIS;www.mnhn.fr;48.843835;2.355201
ILE-DE-FRANCE;PARIS;02/10/2002;OUI;;;Musée de l'Assistance Publique - Hôpitaux de Paris;10, Rue des Fossés Saint-Marcel;75005;PARIS;www.aphp.fr;48.838808;2.356014
ILE-DE-FRANCE;PARIS;08/07/2004;NON;;Musée Carnavalet;Crypte Archéologique du Parvis Notre-Dame;"7, Place Jean Paul II
Parvis Notre-Dame";75004;PARIS;www.crypte/paris.fr;49.11925;6.174731
ILE-DE-FRANCE;PARIS;06/01/2002;NON;;;Musée Nissim de Camondo (Les Arts Décoratifs);63, Rue de Monceau;75008;PARIS;www.lesartsdecoratifs.fr/;48.878849;2.312855
ILE-DE-FRANCE;PARIS;01/02/2003;NON;;;Musée d'Art et d'Histoire du Judaïsme;"Hôtel de Saint-Aignan
71, Rue du Temple";75003;PARIS;www.mahj.org;48.86095;2.355608
ILE-DE-FRANCE;PARIS;06/01/2002;NON;;;Galerie d'Anatomie Comparée et de Paléontologie (Muséum d'Histoire Naturelle);"Jardin des Plantes
2, rue Buffon";75005;PARIS;www.mnhn.fr;48.842137;2.359895
ILE-DE-FRANCE;PARIS;06/01/2002;NON;;;Musée de l'Armée;"Hôtel National des Invalides
129, rue de Grenelle";75007;PARIS;/www.musee-armee.fr;48.858219;2.312885
ILE-DE-FRANCE;PARIS;16/11/2006;NON;juil-07;;Établissement Public de la Porte Dorée - Musée de l’Histoire de l’Immigration;"Palais de la Porte Dorée
293, avenue Daumesnil";75012;PARIS;www.histoire-immigration.fr;48.834887;2.408507
ILE-DE-FRANCE;PARIS;01/02/2003;NON;février 2007;;Musée de la Chasse et de la Nature;60, rue des Archives;75003;PARIS;www.chassenature.org/;48.861337;2.358433
ILE-DE-FRANCE;PARIS;06/01/2002;NON;;;Musée National de la Marine;17, Place du Trocadéro;75116;PARIS;www.musee-marine.fr;48.862492;2.287378
ILE-DE-FRANCE;PARIS;06/01/2002;NON;;;Musée de la Publicité (Les Arts Décoratifs);107, Rue de Rivoli;75010;PARIS;www.museedelapub.org et www.lesartsdecoratifs.fr/;48.863218;2.3333
ILE-DE-FRANCE;PARIS;06/01/2002;NON;07-nov-09;;Musée Jean-Jacques Henner;43, Avenue de Villiers;75017;PARIS;www.musee-henner.fr ou www.henner-intime.fr;48.883045;2.307689
ILE-DE-FRANCE;PARIS;01/02/2003;NON;;;Musée de Montmartre;12, Rue Cortot;75018;PARIS;www.museedemontmartre.fr;48.887709;2.340577
ILE-DE-FRANCE;PARIS;06/01/2002;OUI;2014;;Musée de l'Homme (Muséum National d'Histoire Naturelle);Place du Trocadéro;75116;PARIS;www.mnhn.fr;48.862507;2.282278
ILE-DE-FRANCE;PARIS;08/07/2004;NON;2 février 2006;;Musée d'Art Moderne de la ville de Paris;11, Avenue du Pdt Wilson;75116;PARIS;www.mam.paris.fr;;
ILE-DE-FRANCE;PARIS;08/07/2004;NON;;;Musée Zadkine;100 bis, rue d'Assas;75006;PARIS;www.zadkine.paris.fr;48.843177;2.333969
ILE-DE-FRANCE;PARIS;08/07/2004;OUI;2013;;Palais Galliéra - Musée de la Mode de la ville de Paris;10, Avenue Pierre 1er de Serbie;75116;PARIS;www.palaisgalliera.paris.fr;48.865846;2.296361
ILE-DE-FRANCE;PARIS;06/01/2002;NON;;;Etablissement Public du Musée d'Orsay;62, Rue de Lille;75007;PARIS;www.musee-orsay.fr;48.859754;2.325917
ILE-DE-FRANCE;PARIS;06/01/2002;NON;;;Musée de la Musique;221, Avenue Jean-Jaurès;75019;PARIS;www.citedelamusique.fr;48.889306;2.393807
ILE-DE-FRANCE;PARIS;06/01/2002;OUI;Pas d'info;;Musée Hébert;"Hôtel de Montmorency-Bours
85, Rue du Cherche Midi";75006;PARIS;;48.847429;2.322709
ILE-DE-FRANCE;PARIS;08/07/2004;NON;10 Décembre 2005;;Petit Palais, Musée des Beaux-Arts de la ville de Paris;Avenue Winston-Churchill;75008;PARIS;www.petitpalais.paris.fr;48.866084;2.313813
ILE-DE-FRANCE;PARIS;06/01/2002;NON;;;Musée National Gustave Moreau;14, Rue de la Rochefoucauld;75009;PARIS;www.musee-moreau.fr;48.877878;2.334383
ILE-DE-FRANCE;PARIS;01/02/2003;NON;11 février 2010;;Musée de la Franc-Maçonnerie;16, Rue Cadet;75009;PARIS;www.museefm.org;48.874952;2.343057
ILE-DE-FRANCE;PARIS;08/07/2004;NON;28 février 2006;;Musée de la Vie Romantique;16, Rue Chaptal;75009;PARIS;www.vie-romantique.paris.fr;48.880899;2.333278
ILE-DE-FRANCE;PARIS;06/01/2002;NON;;;Etablissement public de la Porte Dorée - Aquarium Tropical;293, avenue Daumesnil;75012;PARIS;www.aquarium-portedoree.fr;48.834887;2.408507
ILE-DE-FRANCE;PARIS;08/07/2004;NON;17-juin-05;;Musée Cernuschi, Musée des Arts de l'Asie de la ville de Paris;7, Avenue Velasquez;75008;PARIS;www.cernuschi.paris.fr;48.879693;2.312194
ILE-DE-FRANCE;PARIS;06/01/2002;NON;sept-06;;Musées Arts Décoratifs  Mode et du Textile;107, Rue de Rivoli;75001;PARIS;www.lesartsdecoratifs.fr;48.863218;2.3333
ILE-DE-FRANCE;PARIS;06/01/2002;NON;22-nov-06;;Musée National de la Légion d'Honneur et des Ordres de Chevalerie;2, Rue de la Légion d'Honneur;75007;PARIS;www.musee-legiondhonneur.fr;48.860433;2.324889
ILE-DE-FRANCE;PARIS;06/01/2002;NON;;;Musée du Louvre;34, Quai du Louvre;75001;PARIS;www.louvre.fr;48.858905;2.340991
ILE-DE-FRANCE;PARIS;19/04/2004;OUI;2008;;Musée National du Sport;93, avenue de France;75013;PARIS;www.museedusport.fr;48.829117;2.37785
ILE-DE-FRANCE;PARIS;06/01/2002;NON;;;Musée National Eugène Delacroix;6, Rue Furstenberg;75006;PARIS;www.musee-delacroix.fr;48.854437;2.335771
ILE-DE-FRANCE;PARIS;08/07/2004;NON;;;Musée du Général Leclerc de Hauteclocque et de la Libération de Paris - Musée Jean Moulin;23, Allée de la 2ème DB;75015;PARIS;www.ml-leclerc-moulin.paris.fr;48.840251;2.319293
ILE-DE-FRANCE;PARIS;06/01/2002;NON;sept-06;;Musées des Arts Décoratifs;107, Rue de Rivoli;75001;PARIS;www.lesartsdecoratifs.fr/;48.863218;2.3333
ILE-DE-FRANCE;PARIS;08/07/2004;NON;;;Musée Bourdelle;16, Rue Antoine Bourdelle;75015;PARIS;www.bourdelle.paris.fr;48.843017;2.31883
ILE-DE-FRANCE;PARIS;08/07/2004;NON;;Musée Carnavalet;Les Catacombes;"1, avenue du Colonel Henri Rol-Tanguy
(Place Denfert-Rochereau)";75014;PARIS;www.catacombes.paris.fr;48.833784;2.331927
ILE-DE-FRANCE;PARIS;08/07/2004;NON;;;Maison de Balzac;47, rue Raynouard;75016;PARIS;www.balzac.paris.fr;48.85538;2.280755
ILE-DE-FRANCE;PARIS;06/01/2002;NON;;;Musée National Auguste Rodin;"Hôtel Biron
77, rue de Varenne";75007;PARIS;www.musee-rodin.fr;48.855868;2.31598
ILE-DE-FRANCE;PARIS;06/01/2002;NON;05-avr-12;;Musée d'Ennery;59, Avenue Foch;75116;PARIS;www.guimet.fr;48.871887;2.282381
ILE-DE-FRANCE;PARIS;06/01/2002;NON;;;Etablissement Public du Musée des Arts Asiatiques Guimet;6, Place d'Iéna;75116;PARIS;www.museeguimet.fr;48.865008;2.293674
ILE-DE-FRANCE;PARIS;06/01/2002;OUI;2013 à Marseille;;M.U.C.E.M. - Musée des ATP;6, Avenue du Mahatma Gandhi;75116;PARIS;www.musee-europemediterranee.org;48.877026;2.267791
ILE-DE-FRANCE;PARIS;09/07/2004;NON;sept-07;;Musée des Monuments Français;"Palais de Chaillot
1, Place du Trocadéro et du 11 Novembre";75116;PARIS;www.citechaillot.fr;48.862887;2.287945
ILE-DE-FRANCE;PARIS;01/02/2003;OUI;Transfert Roubaix;;Musée Bouchard;25, Rue de l'Yvette;75016;PARIS;www.musee-bouchard.com;48.853611;2.265988
ILE-DE-FRANCE;PARIS;06/01/2002;NON;;;Musée National des Techniques (Conservatoire National des Arts et Métiers);292, rue Saint-Martin;75141;PARIS cedex 03;www.arts-et-metiers.net;48.866961;2.354634
ILE-DE-FRANCE;PARIS;06/01/2002;NON;;;Musée National d'Art Moderne (Centre National d'Art et de Culture Georges Pompidou);Place Georges Pompidou;75191;PARIS Cedex 04;www.centrepompidou.fr;48.844444;2.271958
ILE-DE-FRANCE;PARIS;13/12/2006;NON;;;Musée du Service de Santé des Armées du Val-de-Grâce;1, Place Alphonse Laveran;75230;PARIS Cedex 05;www.valdegrace.org;48.840814;2.341091
ILE-DE-FRANCE;PARIS;21/03/2011;NON;;;Institut du Monde Arabe;"1, Rue des Fossés Saint-Bernard
Place Mohammed V";75236;PARIS Cedex 05;www.imarabe.org;48.849302;2.356099
ILE-DE-FRANCE;PARIS;06/01/2002;OUI;Fin 2014;;Musée des Monnaies et des Médailles;11, Quai de Conti;75270;PARIS Cedex 06;www.monnaiedeparis.fr;48.857003;2.338699
ILE-DE-FRANCE;PARIS;09/12/2004;NON;20-juin-06;;Musée du Quai Branly;222, rue de l'Université;75343;PARIS cedex 07;www.quaibranly.fr;48.860136;2.297256
ILE-DE-FRANCE;PARIS;06/01/2002;OUI;;;L'Adresse Musée de la Poste;34, Boulevard de Vaugirard;75731;PARIS Cedex 15;www.museedelaposte.fr ou www.laposte.fr/musee;48.841347;2.317414
ILE-DE-FRANCE;SEINE ET MARNE;01/02/2003;NON;;;Musée Départemental de l'Ecole de Barbizon - Auberge Ganne;92, Grande Rue;77630;BARBIZON;"www.seine-et-marne.fr (rubrique ""loisirs/musées départementaux)";48.446153;2.602548
ILE-DE-FRANCE;SEINE ET MARNE;01/02/2003;NON;;;Musée Municipal de Chelles Alfred Bonno;Place de la République;77500;CHELLES;www.chelles.fr/Culture/Musee-Alfred-Bonno;48.877886;2.59188
ILE-DE-FRANCE;SEINE ET MARNE;01/02/2003;OUI;Inconnue;;Musée des Transports Urbains, Interurbains et Ruraux;1, Rue Gabriel de Mortillet;77500;CHELLES;www.amtuir.org;48.87682;2.603374
ILE-DE-FRANCE;SEINE ET MARNE;01/02/2003;NON;;;Musée Municipal des Capucins;"Hôtel de Ville
B.P. 171";77527;COULOMMIERS cedex;www.tourisme77.fr ou www.coulommiers.fr;;
ILE-DE-FRANCE;SEINE ET MARNE;01/02/2003;NON;;;Maison Natale de Louis Braille;13, Rue Louis-Braille;77700;COUPVRAY;www.braillenet.org/louis_braille/maisnat.htm;48.894538;2.791986
ILE-DE-FRANCE;SEINE ET MARNE;01/02/2003;OUI;Non prévue;;Musée Municipal;;77580;CRECY-LA-CHAPELLE;dgs@crecylachapelle.eu;48.858000;2.907321
ILE-DE-FRANCE;SEINE ET MARNE;01/02/2003;OUI;Inconnue;;Musée d'Art et d'Histoire Militaire;88, Rue St-Honoré;77300;FONTAINEBLEAU;http://www.napoleon.org/fr;48.406893;2.698781
ILE-DE-FRANCE;SEINE ET MARNE;06/01/2002;NON;;;Musée du Château de Fontainebleau;Château de Fontainebleau;77300;FONTAINEBLEAU;www.châteaudefontainebleau.fr;48.401648;2.700536
ILE-DE-FRANCE;SEINE ET MARNE;01/02/2003;NON;;;Musée Gatien Bonnet;8, Cour Pierre Herbin;77405;LAGNY-SUR-MARNE;Site de la ville;48.879644;2.707767
ILE-DE-FRANCE;SEINE ET MARNE;01/02/2003;NON;;;Musée Henri Chapu;937, Rue Chapu;77350;LE MEE-SUR-SEINE;Site de la ville;48.534859;2.635235
ILE-DE-FRANCE;SEINE ET MARNE;01/02/2003;NON;;;Musée Bossuet;5, Place Charles de Gaulle;77100;MEAUX;site de la ville - www.ville-meaux.fr;48.96087;2.8784
ILE-DE-FRANCE;SEINE ET MARNE;26/03/2007;OUI;11-nov-11;;Musée de la Grande Guerre du Pays de Meaux;Rue Lazare Ponticelli;77100;MEAUX;www.museedelagrandeguerre.eu;;
ILE-DE-FRANCE;SEINE ET MARNE;21/03/2011;OUI;Printemps 2015;;Musée de la Gendarmerie Nationale;Avenue du 13ème Dragons;77000;MELUN;www.gendarmerie.interieur.gouv.fr/musee;48.546473;2.651614
ILE-DE-FRANCE;SEINE ET MARNE;01/02/2003;NON;;;Musée de Melun;5, Rue du Franc Mûrier;77008;MELUN Cedex;Site de la ville : www.ville-melun.fr;48.536398;2.658972
ILE-DE-FRANCE;SEINE ET MARNE;01/02/2003;NON;;;Musée Municipal;Place de Samois;77250;MORET-SUR-LOING;http://www.ville-moret-sur-loing.fr;48.373057;2.813651
ILE-DE-FRANCE;SEINE ET MARNE;01/02/2003;NON;16 février 2008;;Château-musée de Nemours;Rue Gautier 1er;77140;NEMOURS;Site de la ville - www.ville-nemours.fr;48.265557;2.696198
ILE-DE-FRANCE;SEINE ET MARNE;01/02/2003;NON;;;Musée Départemental de Préhistoire d'Île de France;48, Avenue Etienne Dailly;77140;NEMOURS;www.musee-prehistoire-idf.fr;48.260788;2.714709
ILE-DE-FRANCE;SEINE ET MARNE;01/02/2003;NON;;;Musée de Provins et du Provinois;7, rue du Palais;77160;PROVINS;Site de la ville : www.mairie-provins.fr;48.561624;3.290374
ILE-DE-FRANCE;SEINE ET MARNE;01/02/2003;NON;;;Musée des Pays de Seine-et-Marne;17, Avenue de la Ferté-Sous-Jouarre;77750;SAINT-CYR-SUR-MORIN;"Site du conseil général - www.seine-et-marne.fr - rubrique ""loisirs""";48.90803;3.18169
ILE-DE-FRANCE;SEINE ET MARNE;01/02/2003;NON;;;Ecomusée;"Ferme de CouleOUIn
Place Georges Henri Rivière";77176;SAVIGNY-LE-TEMPLE;Site de la ville www.savigny-le-temple.fr;;
ILE-DE-FRANCE;SEINE ET MARNE;01/02/2003;NON;;;Musée départemental Stéphane Mallarmé;"Pont de Valvins
4, Promenade Stéphane Mallarmé";77870;VULAINES-SUR-SEINE;"www.weine-et-marne.fr (rubrique ""loisirs/musées départementaux)";48.430323;2.746605
ILE-DE-FRANCE;SEINE SAINT-DENIS;06/01/2002;NON;;;Musée de l'Air et de l'Espace;"Aéroport de Paris - Le Bourget
BP 173";93352;LE BOURGET Cedex;www.museeairespace.fr;48.943418;2.427417
ILE-DE-FRANCE;SEINE SAINT-DENIS;01/02/2003;NON;;;Musée Municipal;Avenue du Consul Général Nordling;93190;LIVRY-GARGAN;www.mairie-livrygargan.fr/rubrique culture loisirs;48.917561;2.534138
ILE-DE-FRANCE;SEINE SAINT-DENIS;01/02/2003;NON;24-sept-88;;Musée de l'Histoire Vivante;31, Boulevard Théophile Sueur;93100;MONTREUIL-SOUS-BOIS;www.museehistoirevivante.com;48.866151;2.469481
ILE-DE-FRANCE;SEINE SAINT-DENIS;01/02/2003;NON;;;Musée d'Art et d'Histoire;22 bis, rue Gabriel Péri;93200;SAINT-DENIS;www.musee-saint-denis.fr;48.932336;2.355796
ILE-DE-FRANCE;SEINE SAINT-DENIS;01/02/2003;OUI;;;Musée Municipal;12, Rue Albert Dhalenne;93400;SAINT-OUEN;;48.916536;2.330208
ILE-DE-FRANCE;VAL D'OISE;01/02/2003;OUI;;;Musée du Vieil Argenteuil;5, rue Pierre-Guienne;95100;ARGENTEUIL;Site de la ville - www.argenteuil.fr/article.php3?id_article=529;48.94388;2.256737
ILE-DE-FRANCE;VAL D'OISE;06/01/2002;NON;;;Musée de la Renaissance - Château d'Ecouen;Château;95440;ECOUEN;www.musee-renaissance.fr ou www.musee-château-ecouen.fr;49.015861;2.378418
ILE-DE-FRANCE;VAL D'OISE;01/02/2003;NON;;;Musée Archéologique du Val d'Oise;Place du Château;95450;GUIRY-EN-VEXIN;www.valdoise.fr/content/content15651.html;49.107989;1.848496
ILE-DE-FRANCE;VAL D'OISE;01/02/2003;OUI;;;Musée d'Art et d'Histoire Louis Senlecq;46, Grande Rue;95290;L'ISLE-ADAM;http://musee.ville-isle-adam.fr/index.html;49.112091;2.218832
ILE-DE-FRANCE;VAL D'OISE;01/02/2003;NON;10-sept-10;;ARCHEA - Musée Intercommunal d'Histoire et d'Archéologie;56, Rue de Paris;95380;LOUVRES;www.archea-roissyportedefrance.fr;49.041117;2.50695
ILE-DE-FRANCE;VAL D'OISE;01/02/2003;NON;;;Musée jean-Jacques Rousseau;5, Rue Jean-Jacques Rousseau;95160;MONTMORENCY;/www.ville-montmorency.fr;48.986892;2.320916
ILE-DE-FRANCE;VAL D'OISE;01/02/2003;NON;;;Musée Tavet Delacour;4, Rue Lemercier;95300;PONTOISE;Site de la ville - www.ville-Pontoise.fr;49.05093;2.099776
ILE-DE-FRANCE;VAL D'OISE;01/02/2003;NON;;;Musée Camille Pissarro;17, Rue du Château;95300;PONTOISE;www.ville-pontoise.fr;49.048398;2.099888
ILE-DE-FRANCE;VAL DE MARNE;01/02/2003;OUI;2011 environ;;Musée Adrien Mentienne;1, Grande Rue Charles de Gaulle;94360;BRY-SUR-MARNE;http://www.bry94.fr/bry/71.htm;48.835224;2.519827
ILE-DE-FRANCE;VAL DE MARNE;01/02/2003;NON;;;Musée de la Résistance Nationale;"Parc Vercors
88, Avenue Marx Dormoy - B.P. 135
B.P. 135";94501;CHAMPIGNY-SUR-MARNE Cedex;www.musee-resistance.com;;
ILE-DE-FRANCE;VAL DE MARNE;01/02/2003;NON;;;Ecomusée du Val de Bièvre;"Ferme de Cottinville
41, rue Maurice Ténine";94260;FRESNES;www.ecomusee-valdebievre.fr;48.75525;2.326389
ILE-DE-FRANCE;VAL DE MARNE;11/01/2003;NON;;;Musée de Saint-Maur - Villa Médicis;5, Rue Saint-Hilaire;94210;LA VARENNE-SAINT-HILAIRE;www.saint-maur.com/musee/musee.htm;48.792802;2.514062
ILE-DE-FRANCE;VAL DE MARNE;29/08/2006;NON;sept-08;;Musée Fragonard;"Ecole Nationale Vétérinaire d'Alfort
7, Avenue du Gal de Gaulle";94704;MAISONS-ALFORT Cedex;http://musee.vet-alfort.fr;48.814274;2.421122
ILE-DE-FRANCE;VAL DE MARNE;01/02/2003;NON;;;Musée de Nogent-Sur-Marne;36, Boulevard Gallieni;94130;NOGENT-SUR-MARNE;www.musee-nogentsurmarne.fr;48.84026;2.484292
ILE-DE-FRANCE;VAL DE MARNE;01/02/2003;NON;;;Musée Emile Jean;31, rue Louis-Lenoir;94350;VILLIERS-SUR-MARNE;www.mairie-villiers94.com/francais/vie_quoti/vie_quot_culture7.php;48.826701;2.543144
ILE-DE-FRANCE;VAL DE MARNE;01/02/2003;NON;nov-05;;Musée d'Art Contemporain du Val-de-Marne;"Place de la Libération
B.P. 147";94404;VITRY SUR SEINE Cedex;www.macval.fr;;
ILE-DE-FRANCE;YVELINES;01/02/2003;OUI;;;Musée de la Batellerie;"Château du Prieuré
3, Place Gévelot";78700;CONFLANS-SAINTE-HONORINE;www.mairie-conflans-sainte-honorine.fr;48.992445;2.095621
ILE-DE-FRANCE;YVELINES;01/02/2003;NON;;;Musée de la Toile de Jouy;"Château de l'Eglantine
54, rue Charles de Gaulle";78350;JOUY-EN-JOSAS;www.museedelatoiledejouy.fr;48.768986;2.153216
ILE-DE-FRANCE;YVELINES;01/02/2003;NON;;;Musée-Promenade de Marly-Le Roi /Louveciennes;La Grille Royale Parc de Marly;78430;LOUVECIENNES;www.musee-promenade.fr;;
ILE-DE-FRANCE;YVELINES;06/01/2002;NON;;;Musée National de Port Royal des Champs;Route des Granges;78114;MAGNY-LES-HAMEAUX;http://www.port-royal-des-champs.eu;48.748152;2.015991
ILE-DE-FRANCE;YVELINES;01/02/2003;NON;;;Musée de l'Hôtel-Dieu;1, Rue Thiers;78200;MANTES-LA-JOLIE;http://musee.ville-mantes-la-jolie.com;48.990874;1.719901
ILE-DE-FRANCE;YVELINES;01/02/2003;NON;;;Musée Victor Aubert;24, rue Quincampoix;78580;MAULE;http://museeaubertmaule.free.fr;48.908957;1.849122
ILE-DE-FRANCE;YVELINES;19/11/2009;OUI;2015;;Musée Zola-Dreyfus;26, Rue Pasteur;78670;MEDAN;www.maisonzola-museedreyfus.com;48.955066;1.995741
ILE-DE-FRANCE;YVELINES;01/02/2003;NON;;;Musée-Maison Maurice Ravel;5, Rue Maurice Ravel;78490;MONTFORT-L'AMAURY;www.ville-montfort-l-amaury.fr;48.776114;1.805347
ILE-DE-FRANCE;YVELINES;01/02/2003;NON;4 décembre 2002;;Musée de la Ville;Quai François Truffaut;78180;MONTIGNY LE BRETONNEUX;www.museedelaville.agglo-sqy.fr;48.782574;2.042599
ILE-DE-FRANCE;YVELINES;01/02/2003;OUI;Non précisée;;Musée d'Art et d'Histoire;12, Rue Saint-Louis;78300;POISSY;Site de la ville;48.930899;2.038803
ILE-DE-FRANCE;YVELINES;01/02/2003;NON;;;Musée du Jouet Pierre Pinel;1, Enclos de l'Abbaye;78300;POISSY;site de la ville;48.928536;2.03784
ILE-DE-FRANCE;YVELINES;01/02/2003;NON;;;Musée Rambolitrain;4, Place Jeanne d'Arc;78120;RAMBOUILLET;www.rambolitrain.fr;48.646025;1.823892
ILE-DE-FRANCE;YVELINES;01/02/2003;OUI;Non prévue;;Musée Municipal - Collections Paul et André Véra;"Espace Véra
2, Rue Henri IV";78100;SAINT-GERMAIN-EN-LAYE;Site de la ville;48.896357;2.097575
ILE-DE-FRANCE;YVELINES;06/01/2002;NON;;;Musée d'Archéologie Nationale (des origines à l'an mille) - Château de st-Germain-en-Laye;"Château
Place Charles de Gaulle";78105;SAINT-GERMAIN-EN-LAYE Cedex;www.musee-antiquitesnationales.fr -www.musee-archeologienationale.fr;48.897404;2.094962
ILE-DE-FRANCE;YVELINES;01/02/2003;NON;;;Musée Départemental Maurice Denis;"2 bis, Rue Maurice Denis
B.P. 60222";78102;SAINT-GERMAIN-EN-LAYE Cedex;www.musee-mauricedenis.fr;48.892496;2.087541
ILE-DE-FRANCE;YVELINES;01/02/2003;NON;;;Collections de la Fondation de Coubertin;Domaine de Coubertin;78470;ST-REMY-LES-CHEVREUSE;www.coubertin.fr;48.701169;2.06008
ILE-DE-FRANCE;YVELINES;01/02/2003;NON;;;Musée Lambinet;54, Boulevard de la Reine;78000;VERSAILLES;www.musee-lambinet.com;48.808966;2.130624
ILE-DE-FRANCE;YVELINES;06/01/2002;NON;;;Etablissement Public du Musée et du Domaine National de Versailles;R.P. 834;78008;VERSAILLES Cedex;www.chateauversailles.fr;50.27117;1.666476
LANGUEDOC-ROUSSILLON;AUDE;05/07/2012;NON;;;"Musée Municipal ""Eburomagus Musée Archéologique""";2, Avenue du Razès;11150;BRAM;www.eburomagus.com;43.243772;2.116173
LANGUEDOC-ROUSSILLON;AUDE;01/02/2003;NON;;;Musée des Beaux-Arts;1, Rue de Verdun;11000;CARCASSONNE;Site de la ville;43.212595;2.35536
LANGUEDOC-ROUSSILLON;AUDE;01/02/2003;NON;;;Musée Archéologique du Lauragais;"Rampe du Presidial
B.P. 1100";11491;CASTELNAUDARY Cedex;http://www.ville-castelnaudary.fr;;
LANGUEDOC-ROUSSILLON;AUDE;01/02/2003;OUI;Projet arrêté;;Musée Municipal;Mairie;11600;LASTOURS;;43.329607;2.381615
LANGUEDOC-ROUSSILLON;AUDE;01/02/2003;NON;;;Musée Petiet;"Promenade du Tivoli
B.P. 88";11304;LIMOUX Cedex;www.limoux.fr/fr/tourisme/musee_petiet.html;;
LANGUEDOC-ROUSSILLON;AUDE;12/06/2002;NON;;;Musée Archéologique;B.P. 823;11108;NARBONNE cedex;www.mairie-narbonne.fr;;
LANGUEDOC-ROUSSILLON;AUDE;12/06/2002;NON;;;Musée d'Art et d'Histoire;B.P. 823;11108;NARBONNE Cedex;www.mairie-narbonne.ff;;
LANGUEDOC-ROUSSILLON;AUDE;01/02/2003;NON;;;Musée Archéologique;Allée des Potiers;11590;SALLELES D'AUDE;http://culture.legrandnarbonne.com/421-amphoralis.html - www.amphoralis.com;43.268326;2.939055
LANGUEDOC-ROUSSILLON;AUDE;01/02/2003;NON;;;Musée des Corbières;Place de la Libération;11130;SIGEAN;www.sigean.fr - site de la ville;43.028708;2.979241
LANGUEDOC-ROUSSILLON;GARD;01/02/2003;NON;;;Musée du Colombier;Rue Jean Mayodon;30100;ALES;site de la ville - www.ville-ales.fr;44.129374;4.080928
LANGUEDOC-ROUSSILLON;GARD;01/02/2003;NON;;;Musée-Bibliothèque Pierre-André Benoît;"Rue de Brouzen
Pôle culturel de Rochebelle";30100;ALES;site de la ville - www.ville-ales.fr;;
LANGUEDOC-ROUSSILLON;GARD;01/02/2003;NON;;;Musée Albert André;"Hôtel de ville
place Mallet";30200;BAGNOLS-SUR-CEZE;Site dela ville ou Site du conseil général;44.162044;4.619756
LANGUEDOC-ROUSSILLON;GARD;01/02/2003;NON;;;Musée Léon Alègre;24, avenue Paul Langevin;30200;BAGNOLS-SUR-CEZE;Site de la ville ou site du conseil général;44.164783;4.621031
LANGUEDOC-ROUSSILLON;GARD;01/02/2003;NON;;;Musée Municipal de la Vignasse;"Mairie
Rue de l'Hôtel de ville";30300;BEAUCAIRE;www.beaucaire.fr/spip.php?article65;43.806612;4.644317
LANGUEDOC-ROUSSILLON;GARD;01/02/2003;NON;;;Musée Cévenol;1, Rue des Calquières;30120;LE VIGAN;www.museecevenol.com;43.988992;3.606958
LANGUEDOC-ROUSSILLON;GARD;01/02/2003;NON;;;Musée Archéologique;13, Boulevard Amiral Courbet;30000;NIMES;www.nimes.fr/index.php?id=280;43.837616;4.362815
LANGUEDOC-ROUSSILLON;GARD;01/02/2003;NON;Inauguration en 2002;Musée du Vieux Nîmes;Musée des Cultures Taurines;6, Rue Alexandre Ducros;30000;NIMES;http://www.nimes.fr/index.php?id=282;43.833806;4.358623
LANGUEDOC-ROUSSILLON;GARD;01/02/2003;NON;;;Musée du Vieux Nîmes;Place aux Herbes;30000;NIMES;www.nimes.fr/index.php?id=283;43.838287;4.359585
LANGUEDOC-ROUSSILLON;GARD;01/02/2003;NON;08-mai-93;;Carré d'Art Musée d'Art Contemporain de Nîmes;Place de la Maison Carrée;30031;NIMES Cedex 1;www.carreartmusee.nimes.fr;43.838163;4.356136
LANGUEDOC-ROUSSILLON;GARD;01/02/2003;NON;;;Musée des Beaux-Arts;Rue Cité Foulc;30033;NIMES Cedex 9;www.nimes.fr;43.831958;4.360886
LANGUEDOC-ROUSSILLON;GARD;06/01/2002;NON;;;Musée d'Histoire Naturelle et de Préhistoire;13 Bis, Bd Amiral Courbet;30033;NIMES Cedex 9;site de la ville - www.nimes.fr;43.837676;4.36298
LANGUEDOC-ROUSSILLON;GARD;01/02/2003;NON;;;Musée Départemental d'Art Sacré;"Maison des Chevaliers
2, Rue Saint-Jacques";30130;PONT-SAINT-ESPRIT;http://www.gard-provencal.com/musees/artsacre.htm;44.255204;4.650869
LANGUEDOC-ROUSSILLON;GARD;01/02/2003;NON;;;Musée Paul Raymond;Place de l'Ancienne Mairie;30130;PONT-SAINT-ESPRIT;http://www.gard-provencal.com/musees/praymond.htm;44.255685;4.650898
LANGUEDOC-ROUSSILLON;GARD;01/02/2003;NON;;;Musée de la Maison Romane;"Place de la Maison Romane
B.P. 77";30800;SAINT-GILLES-DU-GARD;http://saint-gilles.fr/musee-de-la-maison-romane;;
LANGUEDOC-ROUSSILLON;GARD;01/02/2003;OUI;Printemps 2016;;Musée des Vallées Cévenoles;B.P. 08;30270;SAINT-JEAN DU GARD;www.museedescevennes.com;48.890388;5.555086
LANGUEDOC-ROUSSILLON;GARD;01/02/2003;NON;;;Musée Municipal Georges Borias;BP 103;30701;UZES Cedex;http://uzesmusee.blogspot.fr/ ou http://www.uzes-tourisme.com/sitefr/musees/borias.htm;44.016322;4.41047
LANGUEDOC-ROUSSILLON;GARD;01/02/2003;NON;;;Musée Pierre de Luxembourg;3, Rue de la République;30400;VILLENEUVE-LES-AVIGNON;Site du conseil général;43.965435;4.796389
LANGUEDOC-ROUSSILLON;HERAULT;01/02/2003;OUI;2012;;Musée Agathois;5 rue de la Fraternité;34300;AGDE;;43.311837;3.468587
LANGUEDOC-ROUSSILLON;HERAULT;01/02/2003;NON;;;Musée des Beaux-Arts de Béziers;Place de la Révolution;34500;BEZIERS;www.ville-beziers.fr/culture/02.cfm;43.341552;3.210676
LANGUEDOC-ROUSSILLON;HERAULT;01/02/2003;NON;;;Musée du Biterrois;"Rampe du 96ème
caserne Saint Jacques";34500;BEZIERS;Site de la ville;;
LANGUEDOC-ROUSSILLON;HERAULT;01/02/2003;NON;;;Muséum d'Histoire Naturelle;15 Place Pierre Semard;34500;BEZIERS;Site de la ville;43.343241;3.211279
LANGUEDOC-ROUSSILLON;HERAULT;01/02/2003;NON;;;Musée de l'Etang de Thau;Quai du Port de Pêche;34140;BOUZIGUES;www.bouzigues.fr/musee;43.446763;3.660714
LANGUEDOC-ROUSSILLON;HERAULT;01/02/2003;OUI;2015 ou 2016;;Musée Municipal;4 bis, Rue Lucien Salette;34110;FRONTIGNAN-LA-PEYRADE;site de la ville - www.ville-frontignan.fr;43.446743;3.754546
LANGUEDOC-ROUSSILLON;HERAULT;01/02/2003;OUI;juin-14;;Musée de la Cloche et de la Sonnaille;"Espace Campanaire André-Malraux
Avenue de la Gare";34600;HEREPIAN;www.mairieherepian.fr/decouvrir-herepian/musee-de-la-cloche-et-de-la-sonnaille/ -  www.ot-lamaloulesbains.fr;;
LANGUEDOC-ROUSSILLON;HERAULT;01/02/2003;NON;;;Site Archéologique Lattara - Musée Henri Prades de Montpellier Agglomération;390, Avenue de Pérols;34970;LATTES Cédex;www.montpellier-agglo.com/museearcheo;43.566729;3.908384
LANGUEDOC-ROUSSILLON;HERAULT;01/02/2003;NON;;;Musée de l'Ephèbe;Mas de La Clape;34300;LE CAP D'AGDE;Site créé en décembre 2012;;
LANGUEDOC-ROUSSILLON;HERAULT;01/02/2003;OUI;juin-15;;Musée Intercommunal du Pic Saint-Loup;1, Rue du Musée;34270;LES MATELLES;www.cc-picsaintloup.fr;43.725407;3.80852
LANGUEDOC-ROUSSILLON;HERAULT;01/02/2003;NON;22/06/2013;;Musée Fleury;"Hôtel du Cardinal de Fleury
Square Georges Auric";34700;LODEVE;www.museedelodeve.fr;;
LANGUEDOC-ROUSSILLON;HERAULT;01/02/2003;NON;;;Musée Archéologique;Place du Monument aux Morts;34210;MINERVE;;43.354336;2.746215
LANGUEDOC-ROUSSILLON;HERAULT;01/02/2003;NON;6 février 2010;;Musée de l'Hôtel d'Espeyran;6, bis rue Montpelliéret;34000;MONTPELLIER;www.montpellier-agglo.com;43.611158;3.880156
LANGUEDOC-ROUSSILLON;HERAULT;06/01/2002;NON;3 Février 2007;;Musée Fabre;13, rue Montpellieret;34000;MONTPELLIER;www.montpellier-agglo.com/museefabre;43.61122;3.880192
LANGUEDOC-ROUSSILLON;HERAULT;01/02/2003;NON;;;Musée Languedocien;"Hôtel des Trésoriers de France
7, Rue Jacques-Cœur";34000;MONTPELLIER;www.musee-languedocien.com;43.609525;3.879151
LANGUEDOC-ROUSSILLON;HERAULT;01/02/2003;NON;;;Musée du Vieux Montpellier;"Hôtel de Varennes
2, Place Pétrarque";34000;MONTPELLIER;www.montpellier.fr/3803-manifestations-culturelles.htm;43.610763;3.878354
LANGUEDOC-ROUSSILLON;HERAULT;01/02/2003;OUI;Non prévue;;Agropolis-Muséum;951, Avenue Agropolis;34394;MONTPELLIER Cedex 5;www.museum.agropolis.fr;43.646297;3.868582
LANGUEDOC-ROUSSILLON;HERAULT;01/02/2003;NON;1er mars 2008;;Musée Municipal;"Hôtel de ville
Rue des Lavoirs";34570;MURVIEL-LES-MONTPELLIER;www.ville-murviel-les-montpellier.fr;43.605501;3.737131
LANGUEDOC-ROUSSILLON;HERAULT;01/02/2003;NON;;;Musée de Vulliod Saint-Germain;3, Rue Albert-Paul Allies;34120;PEZENAS;Site de la ville;43.461352;3.422892
LANGUEDOC-ROUSSILLON;HERAULT;01/02/2003;NON;;;Musée de Préhistoire Régionale et du Mégalithisme;8, Grand'Rue;34220;SAINT-PONS-DE-THOMIERES;www.pays-saintponais.com;43.488771;2.758652
LANGUEDOC-ROUSSILLON;HERAULT;01/02/2003;NON;;;Musée Paul Valéry;148, Rue François Desnoyer;34200;SETE;www.museepaulvalery-sete.fr;43.395512;3.691204
LANGUEDOC-ROUSSILLON;LOZERE;01/02/2003;OUI;Non encore prévue;;Musée Ignon Fabre;3, Rue de l'Epine;48000;MENDE;;44.518396;3.499291
LANGUEDOC-ROUSSILLON;LOZERE;01/02/2003;NON;;;Ecomusée du Mont Lozère;Route de Finiels;48220;PONT DE MONTVERT;www.mescevennes.com/decouvertes/ecomusee_loz.htm;44.36401;3.746557
LANGUEDOC-ROUSSILLON;PYRENEES ORIENTALES;01/02/2003;NON;;;Musée départemental d'Art Moderne;"8, Bd Maréchal Joffre
B.P. 60413";66403;CERET Cedex;www.musee-ceret.com;;
LANGUEDOC-ROUSSILLON;PYRENEES ORIENTALES;01/02/2003;NON;;;Musée d'Art Moderne - Fonds Peskè;"Villa Pams
Route de Port-Vendres";66190;COLLIOURE;www.collioure.net/musee.asp;;
LANGUEDOC-ROUSSILLON;PYRENEES ORIENTALES;01/02/2003;NON;;;Muséum d'Histoire Naturelle;12, Place  Fontaine Neuve;66000;PERPIGNAN;www.mairie-perpignan.fr;42.697424;2.899718
LANGUEDOC-ROUSSILLON;PYRENEES ORIENTALES;01/02/2003;OUI;Indéterminée;;Musée Archéologique de Ruscino;Château Roussillon;66000;PERPIGNAN;;42.708796;2.946234
LANGUEDOC-ROUSSILLON;PYRENEES ORIENTALES;01/02/2003;NON;;;Musée du Castillet Casa Pairal;"Mairie de Perpignan
B.P. 931";66931;PERPIGNAN Cedex;Site de la mairie - www.mairie-perpignan.fr;;
LANGUEDOC-ROUSSILLON;PYRENEES ORIENTALES;01/02/2003;NON;;;Musée Joseph Puig;"42, Avenue de Grande-Bretagne
B.P. 931";66931;PERPIGNAN Cedex;Site de la mairie - www.mairie-perpignan.fr;42.69945;2.883256
LANGUEDOC-ROUSSILLON;PYRENEES ORIENTALES;01/02/2003;NON;;;Musée Hyacinthe Rigaud;"16, rue de l'Ange
B.P. 931";66931;PERPIGNAN Cedex;Site de la mairie : www.mairie-perpignan.fr;42.69812;2.893588
LANGUEDOC-ROUSSILLON;PYRENEES ORIENTALES;01/02/2003;OUI;Indéterminée;;Musée d'Archéologie Sous-Marine;Mairie;66660;PORT-VENDRES;;42.522276;3.104792
LANGUEDOC-ROUSSILLON;PYRENEES ORIENTALES;01/02/2003;OUI;Eté 2009;;Musée de Cerdagne;Cal Mateu;66800;SAINTE-LEOCADIE;www.museedecerdagne.com;42.439388;2.00239
LANGUEDOC-ROUSSILLON;PYRENEES ORIENTALES;01/02/2003;NON;;;Musée de Tautavel;Avenue Léon-Jean Grégory;66720;TAUTAVEL;www.450000ans.com ou www.cerptautavel.com;42.813782;2.747999
LIMOUSIN;CORREZE;15/08/2002;NON;;;Musée Labenche d'Art et d'Histoire;26 bis, boulevard Jules Ferry;19100;BRIVE-LA-GAILLARDE;www.musee-labenche.com ou www.brive.net;45.158437;1.535971
LIMOUSIN;CORREZE;29/11/2002;NON;;;Musée du Président Jacques Chirac;;19800;SARRAN;www.museepresidentjchirac.fr;45.41758;1.922718
LIMOUSIN;CORREZE;01/02/2003;OUI;juin-11;;Musée du Cloître de Tulle André Mazeyrie;Place Monseigneur Berteaud;19000;TULLE;www.museecloitre-tulle.com ou www.ville-tulle.fr;;
LIMOUSIN;CORREZE;23/06/2008;NON;;;Musée de la Mémoire et des Industries Tullistes;1, Rue du 9 juin 1944;19000;TULLE;Site de la ville;45.260245;1.751701
LIMOUSIN;CORREZE;08/08/2002;NON;;;Musée du Pays d'Ussel;B.P. 63;19208;USSEL;http://www.ussel19.fr/culture-patrimoine/musee-du-pays-d-ussel.html;48.408029;6.860172
LIMOUSIN;CREUSE;17/06/2002;NON;;;Musée Départemental de la Tapisserie;"16, Avenue des Lissiers
B.P. 89";23200;AUBUSSON;www.cite-tapisserie.fr;45.954471;2.1694
LIMOUSIN;CREUSE;01/02/2003;NON;;;Musée d'Art et d'Archéologie;"Hôtel de la Sénatorerie
22, avenue de la Sénatorerie";23000;GUERET;www.ville-gueret.fr/culture/musee.php;46.166077;1.870637
LIMOUSIN;HAUTE VIENNE;01/02/2003;NON;;;Musée René Baubérot;1, place Saint-Thyrse;87290;CHATEAUPONSAC;www.museechateauponsac.com;46.13125;1.274322
LIMOUSIN;HAUTE VIENNE;18/07/2002;OUI;4 Décembre 2010;;Musée Municipal des Beaux-Arts de Limoges - Palais de l'Evêché;1, Place de l'Evêché;87000;LIMOGES;www.museebal.fr;45.828784;1.265445
LIMOUSIN;HAUTE VIENNE;06/01/2002;OUI;29-juin-12;;Musée National Adrien Dubouché;8 bis, Place Winston Churchill;87000;LIMOGES;www.musee-adriendubouche.fr;45.831405;1.254207
LIMOUSIN;HAUTE VIENNE;01/02/2003;NON;;;Musée Départemental d'Art Contemporain;Place du Château;87600;ROCHECHOUART;www.musee-rochechouart.com;45.821801;0.819893
LORRAINE;MEURTHE ET MOSELLE;01/02/2003;NON;;;Les Sources d'Hercule;1, place Jean-Marie Keyser;54120;DENEUVRE;www.museehercule.com/;48.446385;6.734719
LORRAINE;MEURTHE ET MOSELLE;01/02/2003;NON;;;Musée de l'Histoire du Fer;"1, Avenue du Général de Gaulle
B.P. 15";54140;JARVILLE-LA-MALGRANGE;www.grand-nancy.org;48.597477;6.488578
LORRAINE;MEURTHE ET MOSELLE;01/02/2003;NON;;;Musée du Château de Montaigu;167, Rue Lucien Galtier;54410;LANEUVEVILLE-DEVANT-NANCY;http://www.nancy.fr/transver/coord.htm#muslor - Site du Grand Nancy;48.665792;6.215554
LORRAINE;MEURTHE ET MOSELLE;01/02/2003;NON;;;Musée Municipal des Emaux et Faïences;"Port de France
